{
  "title": "支持",
  "count": 183,
  "extracted_at": "2025-12-17T00:43:32.382359",
  "places": [
    {
      "name": "又一村水餃‧麵食。遼寧創始店",
      "url": "https://www.google.com/maps/place/%E5%8F%88%E4%B8%80%E6%9D%91%E6%B0%B4%E9%A4%83%E2%80%A7%E9%BA%B5%E9%A3%9F%E3%80%82%E9%81%BC%E5%AF%A7%E5%89%B5%E5%A7%8B%E5%BA%97/data=!4m2!3m1!1s0x3442abdea289e461:0x175c17f7a841b89",
      "place_id": "0x3442abdea289e461:0x175c17f7a841b89",
      "description": "傳統北方麵食老店，以手工水餃和各式麵食聞名",
      "city": "臺北市",
      "category": "美食",
      "lat": 25.0488389,
      "lng": 121.5422626
    },
    {
      "name": "Skinny Cafe 瘦子咖啡·彰化店｜咖啡專賣店",
      "url": "https://www.google.com/maps/place/Skinny+Cafe+%E7%98%A6%E5%AD%90%E5%92%96%E5%95%A1%C2%B7%E5%BD%B0%E5%8C%96%E5%BA%97%EF%BD%9C%E5%92%96%E5%95%A1%E5%B0%88%E8%B3%A3%E5%BA%97/data=!4m2!3m1!1s0x34693894040648ab:0x2c2b7d0c6851bea",
      "place_id": "0x34693894040648ab:0x2c2b7d0c6851bea",
      "description": "彰化咖啡專賣店，精品咖啡的舒適空間",
      "city": "彰化縣",
      "category": "咖啡廳",
      "lat": 24.080447399999997,
      "lng": 120.5398926
    },
    {
      "name": "不厝",
      "url": "https://www.google.com/maps/place/%E4%B8%8D%E5%8E%9D/data=!4m2!3m1!1s0x346939f35b046df1:0x41850b41a1a3edfc",
      "place_id": "0x346939f35b046df1:0x41850b41a1a3edfc",
      "description": "特色空間，不只是厝的創意場域",
      "city": "彰化縣",
      "category": "其他",
      "lat": 24.081108899999997,
      "lng": 120.54137670000001
    },
    {
      "name": "WeBBerger",
      "url": "https://www.google.com/maps/place/WeBBerger/data=!4m2!3m1!1s0x346e95003b0dbf75:0x5c985500cb1fd1a0",
      "place_id": "0x346e95003b0dbf75:0x5c985500cb1fd1a0",
      "description": "手工漢堡專門店，道地美式漢堡",
      "city": "高雄市",
      "category": "其他",
      "lat": 22.625895,
      "lng": 120.301389
    },
    {
      "name": "一〇〇〇東堂製作｜日式烤糰子專賣店",
      "url": "https://www.google.com/maps/place/%E4%B8%80%E3%80%87%E3%80%87%E3%80%87%E6%9D%B1%E5%A0%82%E8%A3%BD%E4%BD%9C%EF%BD%9C%E6%97%A5%E5%BC%8F%E7%83%A4%E7%B3%B0%E5%AD%90%E5%B0%88%E8%B3%A3%E5%BA%97/data=!4m2!3m1!1s0x34691b0033bee47d:0xcec0282b5d3f59d3",
      "place_id": "0x34691b0033bee47d:0xcec0282b5d3f59d3",
      "description": "日式烤糰子專賣，傳統和菓子的香甜滋味",
      "city": "臺中市",
      "category": "購物",
      "lat": 24.254155599999997,
      "lng": 120.7231104
    },
    {
      "name": "爐鍋咖啡 Luguo Cafe",
      "url": "https://www.google.com/maps/place/%E7%88%90%E9%8D%8B%E5%92%96%E5%95%A1+Luguo+Cafe/data=!4m2!3m1!1s0x3442af72975812c1:0xcc12bd4af94db72",
      "place_id": "0x3442af72975812c1:0xcc12bd4af94db72",
      "description": "自家烘焙咖啡館，以手沖咖啡聞名",
      "city": "臺北市",
      "category": "咖啡廳",
      "lat": 25.124283,
      "lng": 121.46673499999999
    },
    {
      "name": "李兆然家醫科診所",
      "url": "https://www.google.com/maps/place/%E6%9D%8E%E5%85%86%E7%84%B6%E5%AE%B6%E9%86%AB%E7%A7%91%E8%A8%BA%E6%89%80/data=!4m2!3m1!1s0x3442aff7ad5b8119:0x144c39eedaee028d",
      "place_id": "0x3442aff7ad5b8119:0x144c39eedaee028d",
      "description": "家庭醫學科診所，全人照護的醫療服務",
      "city": "新北市",
      "category": "醫療",
      "lat": 25.1680175,
      "lng": 121.4475731
    },
    {
      "name": "依德電器有限公司(冷凍空調專業維修)",
      "url": "https://www.google.com/maps/place/%E4%BE%9D%E5%BE%B7%E9%9B%BB%E5%99%A8%E6%9C%89%E9%99%90%E5%85%AC%E5%8F%B8%28%E5%86%B7%E5%87%8D%E7%A9%BA%E8%AA%BF%E5%B0%88%E6%A5%AD%E7%B6%AD%E4%BF%AE%29/data=!4m2!3m1!1s0x3442a5568d2bf32d:0x8b4a1aee95899edb",
      "place_id": "0x3442a5568d2bf32d:0x8b4a1aee95899edb",
      "description": "冷凍空調維修專業，電器維修服務",
      "city": "新北市",
      "category": "其他",
      "lat": 25.175881000000004,
      "lng": 121.4422203
    },
    {
      "name": "時珍中醫診所",
      "url": "https://www.google.com/maps/place/%E6%99%82%E7%8F%8D%E4%B8%AD%E9%86%AB%E8%A8%BA%E6%89%80/data=!4m2!3m1!1s0x3442a7c05060dd5d:0x17dda2eb4b53d7af",
      "place_id": "0x3442a7c05060dd5d:0x17dda2eb4b53d7af",
      "description": "中醫診所，傳統醫學的現代照護",
      "city": "新北市",
      "category": "醫療",
      "lat": 25.040019199999996,
      "lng": 121.42498459999997
    },
    {
      "name": "桌遊老爹｜購物｜派對｜販售｜春季優惠",
      "url": "https://www.google.com/maps/place/%E6%A1%8C%E9%81%8A%E8%80%81%E7%88%B9%EF%BD%9C%E8%B3%BC%E7%89%A9%EF%BD%9C%E6%B4%BE%E5%B0%8D%EF%BD%9C%E8%B2%A9%E5%94%AE%EF%BD%9C%E6%98%A5%E5%AD%A3%E5%84%AA%E6%83%A0/data=!4m2!3m1!1s0x3442a9a61510bee1:0x8baba908a0c22159",
      "place_id": "0x3442a9a61510bee1:0x8baba908a0c22159",
      "description": "桌遊專賣店，派對場地與桌遊販售",
      "city": "臺北市",
      "category": "其他",
      "lat": 25.036454099999997,
      "lng": 121.50401079999999
    },
    {
      "name": "Ice Gyaru 霜淇淋專門店",
      "url": "https://www.google.com/maps/place/Ice+Gyaru+%E9%9C%9C%E6%B7%87%E6%B7%8B%E5%B0%88%E9%96%80%E5%BA%97/data=!4m2!3m1!1s0x3442a99cabc32f79:0x609cfbc0277e1048",
      "place_id": "0x3442a99cabc32f79:0x609cfbc0277e1048",
      "description": "日系霜淇淋專門店，綿密冰涼的夏日甜點",
      "city": "臺北市",
      "category": "美食",
      "lat": 25.026793899999998,
      "lng": 121.5232557
    },
    {
      "name": "真咖啡 ZANcoffee—人氣推薦 虹吸咖啡/ 沖煮課程/ 口感訓練（無市話，請用粉專私訊或Line@聯繫）",
      "url": "https://www.google.com/maps/place/%E7%9C%9F%E5%92%96%E5%95%A1+ZANcoffee%E2%80%94%E4%BA%BA%E6%B0%A3%E6%8E%A8%E8%96%A6+%E8%99%B9%E5%90%B8%E5%92%96%E5%95%A1%2F+%E6%B2%96%E7%85%AE%E8%AA%B2%E7%A8%8B%2F+%E5%8F%A3%E6%84%9F%E8%A8%93%E7%B7%B4%EF%BC%88%E7%84%A1%E5%B8%82%E8%A9%B1%EF%BC%8C%E8%AB%8B%E7%94%A8%E7%B2%89%E5%B0%88%E7%A7%81%E8%A8%8A%E6%88%96Line@%E8%81%AF%E7%B9%AB%EF%BC%89/data=!4m2!3m1!1s0x34693d914379372d:0x88a947d4af35f787",
      "place_id": "0x34693d914379372d:0x88a947d4af35f787",
      "description": "虹吸咖啡專門店，提供沖煮課程與口感訓練",
      "city": "臺中市",
      "category": "咖啡廳",
      "lat": 24.155074999999997,
      "lng": 120.64960119999999
    },
    {
      "name": "甜拾dessert（現場僅販售切片蛋糕，整顆蛋糕麻煩提前預訂）",
      "url": "https://www.google.com/maps/place/%E7%94%9C%E6%8B%BEdessert%EF%BC%88%E7%8F%BE%E5%A0%B4%E5%83%85%E8%B2%A9%E5%94%AE%E5%88%87%E7%89%87%E8%9B%8B%E7%B3%95%EF%BC%8C%E6%95%B4%E9%A1%86%E8%9B%8B%E7%B3%95%E9%BA%BB%E7%85%A9%E6%8F%90%E5%89%8D%E9%A0%90%E8%A8%82%EF%BC%89/data=!4m2!3m1!1s0x3442ab235b01c619:0xf34f77924b3a001c",
      "place_id": "0x3442ab235b01c619:0xf34f77924b3a001c",
      "description": "精緻甜點店，切片蛋糕與整顆蛋糕預訂",
      "city": "臺北市",
      "category": "美食",
      "lat": 25.0606443,
      "lng": 121.5391366
    },
    {
      "name": "上億鎖匙刻印店",
      "url": "https://www.google.com/maps/place/%E4%B8%8A%E5%84%84%E9%8E%96%E5%8C%99%E5%88%BB%E5%8D%B0%E5%BA%97/data=!4m2!3m1!1s0x34681f4496e9fd11:0x9ef00b1f35f4976b",
      "place_id": "0x34681f4496e9fd11:0x9ef00b1f35f4976b",
      "description": "鎖匙刻印服務，專業開鎖配鑰匙",
      "city": "桃園市",
      "category": "購物",
      "lat": 24.981503899999996,
      "lng": 121.2757795
    },
    {
      "name": "達成醫療器材行",
      "url": "https://www.google.com/maps/place/%E9%81%94%E6%88%90%E9%86%AB%E7%99%82%E5%99%A8%E6%9D%90%E8%A1%8C/data=!4m2!3m1!1s0x34681f5083bbb5d5:0x70ef07fea65ceddc",
      "place_id": "0x34681f5083bbb5d5:0x70ef07fea65ceddc",
      "description": "醫療器材專賣，各式醫療輔具",
      "city": "桃園市",
      "category": "醫療",
      "lat": 24.977831,
      "lng": 121.27001999999999
    },
    {
      "name": "沐荼寺淡海店-臺灣精品茶飲專門Mutucha",
      "url": "https://www.google.com/maps/place/%E6%B2%90%E8%8D%BC%E5%AF%BA%E6%B7%A1%E6%B5%B7%E5%BA%97-%E8%87%BA%E7%81%A3%E7%B2%BE%E5%93%81%E8%8C%B6%E9%A3%B2%E5%B0%88%E9%96%80Mutucha/data=!4m2!3m1!1s0x3442bbebab2dcd2b:0x224850c14ba531f4",
      "place_id": "0x3442bbebab2dcd2b:0x224850c14ba531f4",
      "description": "台灣精品茶飲專賣，淡海店的茶香享受",
      "city": "新北市",
      "category": "飲料店",
      "lat": 25.1960467,
      "lng": 121.438661
    },
    {
      "name": "環球美學牙醫診所",
      "url": "https://www.google.com/maps/place/%E7%92%B0%E7%90%83%E7%BE%8E%E5%AD%B8%E7%89%99%E9%86%AB%E8%A8%BA%E6%89%80/data=!4m2!3m1!1s0x346802a381b21701:0x9d03d72bf6bf51d",
      "place_id": "0x346802a381b21701:0x9d03d72bf6bf51d",
      "description": "美學牙醫診所，牙齒美白與矯正",
      "city": "新北市",
      "category": "醫療",
      "lat": 25.0112126,
      "lng": 121.4669041
    },
    {
      "name": "馨香脆皮烤鴨/彰化便當外送/烤鴨/彰化美食/restaurants/takeout/附近美食",
      "url": "https://www.google.com/maps/place/%E9%A6%A8%E9%A6%99%E8%84%86%E7%9A%AE%E7%83%A4%E9%B4%A8%2F%E5%BD%B0%E5%8C%96%E4%BE%BF%E7%95%B6%E5%A4%96%E9%80%81%2F%E7%83%A4%E9%B4%A8%2F%E5%BD%B0%E5%8C%96%E7%BE%8E%E9%A3%9F%2Frestaurants%2Ftakeout%2F%E9%99%84%E8%BF%91%E7%BE%8E%E9%A3%9F/data=!4m2!3m1!1s0x34694d952b92908f:0xc619da40791af0a6",
      "place_id": "0x34694d952b92908f:0xc619da40791af0a6",
      "description": "用心烹調的美味料理，值得一訪",
      "city": "彰化縣",
      "category": "美食",
      "lat": 23.8991671,
      "lng": 120.38079019999998
    },
    {
      "name": "夫妻臉甜點 Dessert Hyvä｜麵包果醬、寵物親子友善咖啡",
      "url": "https://www.google.com/maps/place/%E5%A4%AB%E5%A6%BB%E8%87%89%E7%94%9C%E9%BB%9E+Dessert+Hyv%C3%A4%EF%BD%9C%E9%BA%B5%E5%8C%85%E6%9E%9C%E9%86%AC%E3%80%81%E5%AF%B5%E7%89%A9%E8%A6%AA%E5%AD%90%E5%8F%8B%E5%96%84%E5%92%96%E5%95%A1/data=!4m2!3m1!1s0x34693dbfeef071ab:0xbc2d406715ec2030",
      "place_id": "0x34693dbfeef071ab:0xbc2d406715ec2030",
      "description": "用心沖煮的咖啡，舒適的品飲空間",
      "city": "臺中市",
      "category": "咖啡廳",
      "lat": 24.149078700000004,
      "lng": 120.6439761
    },
    {
      "name": "胖媽的店：水餃／煎餃",
      "url": "https://www.google.com/maps/place/%E8%83%96%E5%AA%BD%E7%9A%84%E5%BA%97%EF%BC%9A%E6%B0%B4%E9%A4%83%EF%BC%8F%E7%85%8E%E9%A4%83/data=!4m2!3m1!1s0x34693d5c6e4cb51b:0x20355542303a8ffa",
      "place_id": "0x34693d5c6e4cb51b:0x20355542303a8ffa",
      "description": "用心烹調的美味料理，值得一訪",
      "city": "臺中市",
      "category": "購物",
      "lat": 24.166889899999997,
      "lng": 120.6438496
    },
    {
      "name": "雅山 可麗露專賣（每週不定期營業，請看FB）",
      "url": "https://www.google.com/maps/place/%E9%9B%85%E5%B1%B1+%E5%8F%AF%E9%BA%97%E9%9C%B2%E5%B0%88%E8%B3%A3%EF%BC%88%E6%AF%8F%E9%80%B1%E4%B8%8D%E5%AE%9A%E6%9C%9F%E7%87%9F%E6%A5%AD%EF%BC%8C%E8%AB%8B%E7%9C%8BFB%EF%BC%89/data=!4m2!3m1!1s0x34693de634d7e7c3:0x50ae5ca43511072",
      "place_id": "0x34693de634d7e7c3:0x50ae5ca43511072",
      "description": "精心製作的甜點，療癒味蕾好去處",
      "city": "臺中市",
      "category": "其他",
      "lat": 24.1506239,
      "lng": 120.63628440000001
    },
    {
      "name": "毛毛動物診所",
      "url": "https://www.google.com/maps/place/%E6%AF%9B%E6%AF%9B%E5%8B%95%E7%89%A9%E8%A8%BA%E6%89%80/data=!4m2!3m1!1s0x34693c1bb7bd5b59:0xaa49b1c1a8dd9218",
      "place_id": "0x34693c1bb7bd5b59:0xaa49b1c1a8dd9218",
      "description": "專業醫療服務，守護您的健康",
      "city": "臺中市",
      "category": "醫療",
      "lat": 24.1040487,
      "lng": 120.6280443
    },
    {
      "name": "Dolf Ru Cucina | 義式私廚 | 午晚餐 | 靜宜超人氣美食|LINE 預訂用餐|",
      "url": "https://www.google.com/maps/place/Dolf+Ru+Cucina+%7C+%E7%BE%A9%E5%BC%8F%E7%A7%81%E5%BB%9A+%7C+%E5%8D%88%E6%99%9A%E9%A4%90+%7C+%E9%9D%9C%E5%AE%9C%E8%B6%85%E4%BA%BA%E6%B0%A3%E7%BE%8E%E9%A3%9F%7CLINE+%E9%A0%90%E8%A8%82%E7%94%A8%E9%A4%90%7C/data=!4m2!3m1!1s0x346914ffd709a675:0xc38a31e1a9ce511e",
      "place_id": "0x346914ffd709a675:0xc38a31e1a9ce511e",
      "description": "用心烹調的美味料理，值得一訪",
      "city": "臺中市",
      "category": "美食",
      "lat": 24.230545199999998,
      "lng": 120.57159010000001
    },
    {
      "name": "笙華中醫診所",
      "url": "https://www.google.com/maps/place/%E7%AC%99%E8%8F%AF%E4%B8%AD%E9%86%AB%E8%A8%BA%E6%89%80/data=!4m2!3m1!1s0x346915068134ef1b:0xc086f76eefa09035",
      "place_id": "0x346915068134ef1b:0xc086f76eefa09035",
      "description": "專業醫療服務，守護您的健康",
      "city": "臺中市",
      "category": "醫療",
      "lat": 24.223060300000004,
      "lng": 120.56855879999999
    },
    {
      "name": "大東海團購",
      "url": "https://www.google.com/maps/place/%E5%A4%A7%E6%9D%B1%E6%B5%B7%E5%9C%98%E8%B3%BC/data=!4m2!3m1!1s0x34693f5933e851bf:0x8b241bbd27ce34b6",
      "place_id": "0x34693f5933e851bf:0x8b241bbd27ce34b6",
      "description": "獨特的存在，值得親自探索的特色空間",
      "city": "臺中市",
      "category": "其他",
      "lat": 24.181308799999996,
      "lng": 120.58608570000001
    },
    {
      "name": "框框背包客棧(幾何住宿1館) | Kuang Kuang Hostel | 可包棟 | 可報帳 合法民宿094號",
      "url": "https://www.google.com/maps/place/%E6%A1%86%E6%A1%86%E8%83%8C%E5%8C%85%E5%AE%A2%E6%A3%A7%28%E5%B9%BE%E4%BD%95%E4%BD%8F%E5%AE%BF1%E9%A4%A8%29+%7C+Kuang+Kuang+Hostel+%7C+%E5%8F%AF%E5%8C%85%E6%A3%9F+%7C+%E5%8F%AF%E5%A0%B1%E5%B8%B3+%E5%90%88%E6%B3%95%E6%B0%91%E5%AE%BF094%E8%99%9F/data=!4m2!3m1!1s0x34693e27503aeffb:0xeddc8c20a9e51e4b",
      "place_id": "0x34693e27503aeffb:0xeddc8c20a9e51e4b",
      "description": "舒適住宿空間，旅途中的溫馨歸處",
      "city": "臺中市",
      "category": "住宿",
      "lat": 24.182539,
      "lng": 120.59062899999999
    },
    {
      "name": "優植牙醫診所",
      "url": "https://www.google.com/maps/place/%E5%84%AA%E6%A4%8D%E7%89%99%E9%86%AB%E8%A8%BA%E6%89%80/data=!4m2!3m1!1s0x34693e27caffc9ad:0x7fa3ad744285589e",
      "place_id": "0x34693e27caffc9ad:0x7fa3ad744285589e",
      "description": "專業醫療服務，守護您的健康",
      "city": "臺中市",
      "category": "醫療",
      "lat": 24.181621,
      "lng": 120.58673499999999
    },
    {
      "name": "健容牙醫診所",
      "url": "https://www.google.com/maps/place/%E5%81%A5%E5%AE%B9%E7%89%99%E9%86%AB%E8%A8%BA%E6%89%80/data=!4m2!3m1!1s0x34693d812608e18f:0xe76a9bbd4a031b58",
      "place_id": "0x34693d812608e18f:0xe76a9bbd4a031b58",
      "description": "專業醫療服務，守護您的健康",
      "city": "臺中市",
      "category": "醫療",
      "lat": 24.1646071,
      "lng": 120.66104740000002
    },
    {
      "name": "丹尼先生自己喝茶飲",
      "url": "https://www.google.com/maps/place/%E4%B8%B9%E5%B0%BC%E5%85%88%E7%94%9F%E8%87%AA%E5%B7%B1%E5%96%9D%E8%8C%B6%E9%A3%B2/data=!4m2!3m1!1s0x3468d97c6d8b4e17:0x7fdf566662c73fd6",
      "place_id": "0x3468d97c6d8b4e17:0x7fdf566662c73fd6",
      "description": "精選茶飲專賣，品味台灣好茶的香醇",
      "city": "臺中市",
      "category": "飲料店",
      "lat": 24.1851582,
      "lng": 120.60784799999999
    },
    {
      "name": "民主豆花 Bean Tsu Tau Hue",
      "url": "https://www.google.com/maps/place/%E6%B0%91%E4%B8%BB%E8%B1%86%E8%8A%B1+Bean+Tsu+Tau+Hue/data=!4m2!3m1!1s0x34693d0be4507b93:0x449a204da7b3dcde",
      "place_id": "0x34693d0be4507b93:0x449a204da7b3dcde",
      "description": "精心製作的甜點，療癒味蕾好去處",
      "city": "臺中市",
      "category": "美食",
      "lat": 24.161018799999997,
      "lng": 120.68428809999997
    },
    {
      "name": "三尼美學 SunnyLife / 多肉植物 / 質感手作泥盆 / 泥製家飾品",
      "url": "https://www.google.com/maps/place/%E4%B8%89%E5%B0%BC%E7%BE%8E%E5%AD%B8+SunnyLife+%2F+%E5%A4%9A%E8%82%89%E6%A4%8D%E7%89%A9+%2F+%E8%B3%AA%E6%84%9F%E6%89%8B%E4%BD%9C%E6%B3%A5%E7%9B%86+%2F+%E6%B3%A5%E8%A3%BD%E5%AE%B6%E9%A3%BE%E5%93%81/data=!4m2!3m1!1s0x34693d5ea83c0f65:0x47ace3983e432e0a",
      "place_id": "0x34693d5ea83c0f65:0x47ace3983e432e0a",
      "description": "用心烹調的美味料理，值得一訪",
      "city": "臺中市",
      "category": "其他",
      "lat": 24.1560684,
      "lng": 120.68900020000001
    },
    {
      "name": "紫竹宮",
      "url": "https://www.google.com/maps/place/%E7%B4%AB%E7%AB%B9%E5%AE%AE/data=!4m2!3m1!1s0x34693d36950a691f:0x61acde447730f0aa",
      "place_id": "0x34693d36950a691f:0x61acde447730f0aa",
      "description": "生活中的好幫手，提供便利服務",
      "city": "臺中市",
      "category": "其他",
      "lat": 24.1324519,
      "lng": 120.70542789999999
    },
    {
      "name": "梓書房",
      "url": "https://www.google.com/maps/place/%E6%A2%93%E6%9B%B8%E6%88%BF/data=!4m2!3m1!1s0x34693d859bd3e0e9:0x846c404a75b84279",
      "place_id": "0x34693d859bd3e0e9:0x846c404a75b84279",
      "description": "獨特選書品味的空間，愛書人的秘密基地",
      "city": "臺中市",
      "category": "書店",
      "lat": 24.142762899999997,
      "lng": 120.6592598
    },
    {
      "name": "新裝裏百貨行",
      "url": "https://www.google.com/maps/place/%E6%96%B0%E8%A3%9D%E8%A3%8F%E7%99%BE%E8%B2%A8%E8%A1%8C/data=!4m2!3m1!1s0x346e76890e8cd0f9:0x8964965dbcf4710e",
      "place_id": "0x346e76890e8cd0f9:0x8964965dbcf4710e",
      "description": "生活中的好幫手，提供便利服務",
      "city": "臺南市",
      "category": "其他",
      "lat": 22.9932996,
      "lng": 120.20837259999999
    },
    {
      "name": "蠍座 ~Scorpio~（\\週五放片採預約制/）",
      "url": "https://www.google.com/maps/place/%E8%A0%8D%E5%BA%A7+~Scorpio~%EF%BC%88%5C%E9%80%B1%E4%BA%94%E6%94%BE%E7%89%87%E6%8E%A1%E9%A0%90%E7%B4%84%E5%88%B6%2F%EF%BC%89/data=!4m2!3m1!1s0x346e770067509ba7:0x5af892ba1bed198f",
      "place_id": "0x346e770067509ba7:0x5af892ba1bed198f",
      "description": "獨特的存在，值得親自探索的特色空間",
      "city": "臺南市",
      "category": "其他",
      "lat": 23.004210300000004,
      "lng": 120.21654319999999
    },
    {
      "name": "Suns' Great / 向光旅行",
      "url": "https://www.google.com/maps/place/Suns%27+Great+%2F+%E5%90%91%E5%85%89%E6%97%85%E8%A1%8C/data=!4m2!3m1!1s0x346e761c8503b951:0x2dbb62684adc7c4a",
      "place_id": "0x346e761c8503b951:0x2dbb62684adc7c4a",
      "description": "生活中的好幫手，提供便利服務",
      "city": "臺南市",
      "category": "其他",
      "lat": 23.001047,
      "lng": 120.16414699999999
    },
    {
      "name": "BELONGINN",
      "url": "https://www.google.com/maps/place/BELONGINN/data=!4m2!3m1!1s0x346e7707aafdcf3b:0xb4354b7b5e589005",
      "place_id": "0x346e7707aafdcf3b:0xb4354b7b5e589005",
      "description": "舒適住宿空間，旅途中的溫馨歸處",
      "city": "臺南市",
      "category": "其他",
      "lat": 22.9975303,
      "lng": 120.196541
    },
    {
      "name": "白雪珈琲店 Shira Yuki",
      "url": "https://www.google.com/maps/place/%E7%99%BD%E9%9B%AA%E7%8F%88%E7%90%B2%E5%BA%97+Shira+Yuki/data=!4m2!3m1!1s0x346e758fab55f6f9:0xf0b3b1c32891d059",
      "place_id": "0x346e758fab55f6f9:0xf0b3b1c32891d059",
      "description": "用心沖煮的咖啡，舒適的品飲空間",
      "city": "臺南市",
      "category": "咖啡廳",
      "lat": 22.9677064,
      "lng": 120.1880522
    },
    {
      "name": "叢室convergence",
      "url": "https://www.google.com/maps/place/%E5%8F%A2%E5%AE%A4convergence/data=!4m2!3m1!1s0x346e7683b4d0ed4b:0x1eb559a7c4244595",
      "place_id": "0x346e7683b4d0ed4b:0x1eb559a7c4244595",
      "description": "獨特的存在，值得親自探索的特色空間",
      "city": "臺南市",
      "category": "其他",
      "lat": 22.981182,
      "lng": 120.1970993
    },
    {
      "name": "182artspace",
      "url": "https://www.google.com/maps/place/182artspace/data=!4m2!3m1!1s0x346e76616c553bf1:0xe23a8d3179b938a7",
      "place_id": "0x346e76616c553bf1:0xe23a8d3179b938a7",
      "description": "獨特選書品味的空間，愛書人的秘密基地",
      "city": "臺南市",
      "category": "藝文/工作室",
      "lat": 22.9976186,
      "lng": 120.2014173
    },
    {
      "name": "龍亭",
      "url": "https://www.google.com/maps/place/%E9%BE%8D%E4%BA%AD/data=!4m2!3m1!1s0x346e770013318d83:0x1154486ae1b3b247",
      "place_id": "0x346e770013318d83:0x1154486ae1b3b247",
      "description": "用心烹調的美味料理，值得一訪",
      "city": "臺南市",
      "category": "其他",
      "lat": 23.000529999999998,
      "lng": 120.19408700000001
    },
    {
      "name": "GIKO偷喝 GikoTaoLin",
      "url": "https://www.google.com/maps/place/GIKO%E5%81%B7%E5%96%9D+GikoTaoLin/data=!4m2!3m1!1s0x346e75c5eb82b40b:0xed4f2bd91bfba03b",
      "place_id": "0x346e75c5eb82b40b:0xed4f2bd91bfba03b",
      "description": "獨特的存在，值得親自探索的特色空間",
      "city": "臺南市",
      "category": "其他",
      "lat": 22.967425799999997,
      "lng": 120.19547319999998
    },
    {
      "name": "トウキョウデンパ 東京電波 簡餐 x 玩具 x 選物",
      "url": "https://www.google.com/maps/place/%E3%83%88%E3%82%A6%E3%82%AD%E3%83%A7%E3%82%A6%E3%83%87%E3%83%B3%E3%83%91+%E6%9D%B1%E4%BA%AC%E9%9B%BB%E6%B3%A2+%E7%B0%A1%E9%A4%90+x+%E7%8E%A9%E5%85%B7+x+%E9%81%B8%E7%89%A9/data=!4m2!3m1!1s0x346e76fc2d6475d1:0xa5c5d358aa22c3f4",
      "place_id": "0x346e76fc2d6475d1:0xa5c5d358aa22c3f4",
      "description": "生活中的好幫手，提供便利服務",
      "city": "臺南市",
      "category": "美食",
      "lat": 23.0183322,
      "lng": 120.2114766
    },
    {
      "name": "生命樹咖啡（挺罷免店家）",
      "url": "https://www.google.com/maps/place/%E7%94%9F%E5%91%BD%E6%A8%B9%E5%92%96%E5%95%A1%EF%BC%88%E6%8C%BA%E7%BD%B7%E5%85%8D%E5%BA%97%E5%AE%B6%EF%BC%89/data=!4m2!3m1!1s0x346e7695eb0b55bb:0xc8c6e0ecfde50fbd",
      "place_id": "0x346e7695eb0b55bb:0xc8c6e0ecfde50fbd",
      "description": "用心沖煮的咖啡，舒適的品飲空間",
      "city": "臺南市",
      "category": "咖啡廳",
      "lat": 22.9983808,
      "lng": 120.23341420000001
    },
    {
      "name": "182beer bar",
      "url": "https://www.google.com/maps/place/182beer+bar/data=!4m2!3m1!1s0x346e77004030d983:0x694abb0a1adcdda7",
      "place_id": "0x346e77004030d983:0x694abb0a1adcdda7",
      "description": "特色餐酒館，美食與美酒的饗宴",
      "city": "臺南市",
      "category": "酒吧",
      "lat": 22.9976408,
      "lng": 120.20138150000001
    },
    {
      "name": "只今居酒屋",
      "url": "https://www.google.com/maps/place/%E5%8F%AA%E4%BB%8A%E5%B1%85%E9%85%92%E5%B1%8B/data=!4m2!3m1!1s0x346e77439c95ce5f:0x1ec465bec594d570",
      "place_id": "0x346e77439c95ce5f:0x1ec465bec594d570",
      "description": "日式居酒屋風格，各式下酒美食",
      "city": "臺南市",
      "category": "酒吧",
      "lat": 22.996409699999997,
      "lng": 120.19923659999999
    },
    {
      "name": "迷途貓甜咖",
      "url": "https://www.google.com/maps/place/%E8%BF%B7%E9%80%94%E8%B2%93%E7%94%9C%E5%92%96/data=!4m2!3m1!1s0x346e765f3463ee57:0x4c53694c479f1254",
      "place_id": "0x346e765f3463ee57:0x4c53694c479f1254",
      "description": "精心製作的甜點，療癒味蕾好去處",
      "city": "臺南市",
      "category": "寵物",
      "lat": 23.006601,
      "lng": 120.20336239999997
    },
    {
      "name": "Trueway 麵線研究所&甜點取物所",
      "url": "https://www.google.com/maps/place/Trueway+%E9%BA%B5%E7%B7%9A%E7%A0%94%E7%A9%B6%E6%89%80%26%E7%94%9C%E9%BB%9E%E5%8F%96%E7%89%A9%E6%89%80/data=!4m2!3m1!1s0x3442a9006c874e19:0x63d6a0ddbe003608",
      "place_id": "0x3442a9006c874e19:0x63d6a0ddbe003608",
      "description": "精心製作的甜點，療癒味蕾好去處",
      "city": "臺北市",
      "category": "美食",
      "lat": 25.030642,
      "lng": 121.52684199999997
    },
    {
      "name": "Under160 by _holic / 尻蕊有限公司",
      "url": "https://www.google.com/maps/place/Under160+by+_holic+%2F+%E5%B0%BB%E8%95%8A%E6%9C%89%E9%99%90%E5%85%AC%E5%8F%B8/data=!4m2!3m1!1s0x3442a99b9f1ba947:0xe0e1091d49c29c9c",
      "place_id": "0x3442a99b9f1ba947:0xe0e1091d49c29c9c",
      "description": "獨特的存在，值得親自探索的特色空間",
      "city": "臺北市",
      "category": "其他",
      "lat": 25.053832,
      "lng": 121.509595
    },
    {
      "name": "島頂。食麵",
      "url": "https://www.google.com/maps/place/%E5%B3%B6%E9%A0%82%E3%80%82%E9%A3%9F%E9%BA%B5/data=!4m2!3m1!1s0x346e76bca66dfee1:0x8ab543383c50a1f2",
      "place_id": "0x346e76bca66dfee1:0x8ab543383c50a1f2",
      "description": "用心烹調的美味料理，值得一訪",
      "city": "臺南市",
      "category": "美食",
      "lat": 22.985122999999998,
      "lng": 120.23364869999999
    },
    {
      "name": "凝霓",
      "url": "https://www.google.com/maps/place/%E5%87%9D%E9%9C%93/data=!4m2!3m1!1s0x346e770023496667:0x687382352dbb9732",
      "place_id": "0x346e770023496667:0x687382352dbb9732",
      "description": "獨特的存在，值得親自探索的特色空間",
      "city": "臺南市",
      "category": "其他",
      "lat": 22.9941698,
      "lng": 120.20427550000001
    },
    {
      "name": "恆裕茶莊",
      "url": "https://www.google.com/maps/place/%E6%81%86%E8%A3%95%E8%8C%B6%E8%8E%8A/data=!4m2!3m1!1s0x3469093b526d660f:0xeb25195e2739f0db",
      "place_id": "0x3469093b526d660f:0xeb25195e2739f0db",
      "description": "精選茶飲專賣，品味台灣好茶的香醇",
      "city": "苗栗縣",
      "category": "飲料店",
      "lat": 24.441686999999998,
      "lng": 120.653151
    },
    {
      "name": "山米咖啡所",
      "url": "https://www.google.com/maps/place/%E5%B1%B1%E7%B1%B3%E5%92%96%E5%95%A1%E6%89%80/data=!4m2!3m1!1s0x346e77168ddce323:0x2d38f51008beb22",
      "place_id": "0x346e77168ddce323:0x2d38f51008beb22",
      "description": "用心沖煮的咖啡，舒適的品飲空間",
      "city": "臺南市",
      "category": "咖啡廳",
      "lat": 22.993366400000003,
      "lng": 120.222186
    },
    {
      "name": "故事畔",
      "url": "https://www.google.com/maps/place/%E6%95%85%E4%BA%8B%E7%95%94/data=!4m2!3m1!1s0x346837fe4d11b4dd:0xe986d618a4656d9f",
      "place_id": "0x346837fe4d11b4dd:0xe986d618a4656d9f",
      "description": "獨特的存在，值得親自探索的特色空間",
      "city": "新竹縣",
      "category": "其他",
      "lat": 24.8260537,
      "lng": 121.0316968
    },
    {
      "name": "Black 7 喰肉 精緻肉屋",
      "url": "https://www.google.com/maps/place/Black+7+%E5%96%B0%E8%82%89+%E7%B2%BE%E7%B7%BB%E8%82%89%E5%B1%8B/data=!4m2!3m1!1s0x346836580fe4dc5f:0x7d67135a745d0344",
      "place_id": "0x346836580fe4dc5f:0x7d67135a745d0344",
      "description": "用心烹調的美味料理，值得一訪",
      "city": "新竹縣",
      "category": "其他",
      "lat": 24.825190000000003,
      "lng": 121.02924279999999
    },
    {
      "name": "夠好選物｜寵物用品專賣",
      "url": "https://www.google.com/maps/place/%E5%A4%A0%E5%A5%BD%E9%81%B8%E7%89%A9%EF%BD%9C%E5%AF%B5%E7%89%A9%E7%94%A8%E5%93%81%E5%B0%88%E8%B3%A3/data=!4m2!3m1!1s0x346837fa8cf37449:0x50f8c307795293fb",
      "place_id": "0x346837fa8cf37449:0x50f8c307795293fb",
      "description": "生活中的好幫手，提供便利服務",
      "city": "新竹縣",
      "category": "寵物",
      "lat": 24.8306811,
      "lng": 121.0171601
    },
    {
      "name": "好物小廚 （爬蟲植物餐廳）",
      "url": "https://www.google.com/maps/place/%E5%A5%BD%E7%89%A9%E5%B0%8F%E5%BB%9A+%EF%BC%88%E7%88%AC%E8%9F%B2%E6%A4%8D%E7%89%A9%E9%A4%90%E5%BB%B3%EF%BC%89/data=!4m2!3m1!1s0x34683708f2f079b7:0x8c18ee00c330d493",
      "place_id": "0x34683708f2f079b7:0x8c18ee00c330d493",
      "description": "用心烹調的美味料理，值得一訪",
      "city": "新竹縣",
      "category": "美食",
      "lat": 24.8249693,
      "lng": 121.03552789999998
    },
    {
      "name": "Fairy",
      "url": "https://www.google.com/maps/place/Fairy/data=!4m2!3m1!1s0x3442abc8a1d111bd:0x471a13f910b8bcc7",
      "place_id": "0x3442abc8a1d111bd:0x471a13f910b8bcc7",
      "description": "獨特的存在，值得親自探索的特色空間",
      "city": "臺北市",
      "category": "其他",
      "lat": 25.0420261,
      "lng": 121.54541859999998
    },
    {
      "name": "安康骨科診所",
      "url": "https://www.google.com/maps/place/%E5%AE%89%E5%BA%B7%E9%AA%A8%E7%A7%91%E8%A8%BA%E6%89%80/data=!4m2!3m1!1s0x3442a0771c11be97:0x160acd2e7d4ba3f",
      "place_id": "0x3442a0771c11be97:0x160acd2e7d4ba3f",
      "description": "專業醫療服務，守護您的健康",
      "city": "桃園市",
      "category": "醫療",
      "lat": 25.050718699999997,
      "lng": 121.29398900000001
    },
    {
      "name": "淡水文化園區 - 殼牌倉庫",
      "url": "https://www.google.com/maps/place/%E6%B7%A1%E6%B0%B4%E6%96%87%E5%8C%96%E5%9C%92%E5%8D%80+-+%E6%AE%BC%E7%89%8C%E5%80%89%E5%BA%AB/data=!4m2!3m1!1s0x3442aff60d45a115:0xdbf94cdf24f07afa",
      "place_id": "0x3442aff60d45a115:0xdbf94cdf24f07afa",
      "description": "獨特選書品味的空間，愛書人的秘密基地",
      "city": "新北市",
      "category": "其他",
      "lat": 25.1658494,
      "lng": 121.44699109999999
    },
    {
      "name": "北門綠豆沙牛乳大王 / Beimen Mung bean Milking",
      "url": "https://www.google.com/maps/place/%E5%8C%97%E9%96%80%E7%B6%A0%E8%B1%86%E6%B2%99%E7%89%9B%E4%B9%B3%E5%A4%A7%E7%8E%8B+%2F+Beimen+Mung+bean+Milking/data=!4m2!3m1!1s0x3467e67c104533bd:0x234cdc74e8a9584a",
      "place_id": "0x3467e67c104533bd:0x234cdc74e8a9584a",
      "description": "用心烹調的美味料理，值得一訪",
      "city": "宜蘭縣",
      "category": "其他",
      "lat": 24.760343499999998,
      "lng": 121.75341319999998
    },
    {
      "name": "臺灣基督長老教會 臺北義光教會",
      "url": "https://www.google.com/maps/place/%E8%87%BA%E7%81%A3%E5%9F%BA%E7%9D%A3%E9%95%B7%E8%80%81%E6%95%99%E6%9C%83+%E8%87%BA%E5%8C%97%E7%BE%A9%E5%85%89%E6%95%99%E6%9C%83/data=!4m2!3m1!1s0x3442a97fa429a5ed:0x2d932e5ef0a5b045",
      "place_id": "0x3442a97fa429a5ed:0x2d932e5ef0a5b045",
      "description": "信仰團契的溫馨空間，心靈的歸屬",
      "city": "臺北市",
      "category": "其他",
      "lat": 25.0350969,
      "lng": 121.534525
    },
    {
      "name": "EV café 窩咖啡",
      "url": "https://www.google.com/maps/place/EV+caf%C3%A9+%E7%AA%A9%E5%92%96%E5%95%A1/data=!4m2!3m1!1s0x346e957af28f3b17:0x2fb17e677f8472d4",
      "place_id": "0x346e957af28f3b17:0x2fb17e677f8472d4",
      "description": "用心沖煮的咖啡，舒適的品飲空間",
      "city": "嘉義市",
      "category": "咖啡廳",
      "lat": 23.4758707,
      "lng": 120.46041179999999
    },
    {
      "name": "辜寬敏基金會",
      "url": "https://www.google.com/maps/place/%E8%BE%9C%E5%AF%AC%E6%95%8F%E5%9F%BA%E9%87%91%E6%9C%83/data=!4m2!3m1!1s0x3442a921506c482f:0x3b30715e205fdc4d",
      "place_id": "0x3442a921506c482f:0x3b30715e205fdc4d",
      "description": "獨特選書品味的空間，愛書人的秘密基地",
      "city": "臺北市",
      "category": "其他",
      "lat": 25.059341999999994,
      "lng": 121.53289670000001
    },
    {
      "name": "柏陽釣具",
      "url": "https://www.google.com/maps/place/%E6%9F%8F%E9%99%BD%E9%87%A3%E5%85%B7/data=!4m2!3m1!1s0x34694d3c78208d5b:0x5d5b843fb26948ae",
      "place_id": "0x34694d3c78208d5b:0x5d5b843fb26948ae",
      "description": "生活中的好幫手，提供便利服務",
      "city": "彰化縣",
      "category": "其他",
      "lat": 23.9039189,
      "lng": 120.37438940000001
    },
    {
      "name": "黑金商店",
      "url": "https://www.google.com/maps/place/%E9%BB%91%E9%87%91%E5%95%86%E5%BA%97/data=!4m2!3m1!1s0x346eb509a61d0ddf:0xd438520ad1a4e6c7",
      "place_id": "0x346eb509a61d0ddf:0xd438520ad1a4e6c7",
      "description": "生活中的好幫手，提供便利服務",
      "city": "彰化縣",
      "category": "購物",
      "lat": 23.852164,
      "lng": 120.49360629999998
    },
    {
      "name": "北方大陸餅(西湖Show店)",
      "url": "https://www.google.com/maps/place/%E5%8C%97%E6%96%B9%E5%A4%A7%E9%99%B8%E9%A4%85%28%E8%A5%BF%E6%B9%96Show%E5%BA%97%29/data=!4m2!3m1!1s0x3442ad55fdc0240f:0xbfce3b601203631f",
      "place_id": "0x3442ad55fdc0240f:0xbfce3b601203631f",
      "description": "用心烹調的美味料理，值得一訪",
      "city": "臺北市",
      "category": "購物",
      "lat": 25.0841197,
      "lng": 121.5670707
    },
    {
      "name": "孟克牌磅蛋糕",
      "url": "https://www.google.com/maps/place/%E5%AD%9F%E5%85%8B%E7%89%8C%E7%A3%85%E8%9B%8B%E7%B3%95/data=!4m2!3m1!1s0x3468d99a25e71715:0xd9477adfc70c346f",
      "place_id": "0x3468d99a25e71715:0xd9477adfc70c346f",
      "description": "精緻手工蛋糕，甜蜜幸福好滋味",
      "city": "南投縣",
      "category": "美食",
      "lat": 23.973741000000004,
      "lng": 120.9452752
    },
    {
      "name": "沒有豆花 (休息日請以Facebook公告為主)",
      "url": "https://www.google.com/maps/place/%E6%B2%92%E6%9C%89%E8%B1%86%E8%8A%B1+%28%E4%BC%91%E6%81%AF%E6%97%A5%E8%AB%8B%E4%BB%A5Facebook%E5%85%AC%E5%91%8A%E7%82%BA%E4%B8%BB%29/data=!4m2!3m1!1s0x3468d9a041047903:0xfb9be169fc1d4cba",
      "place_id": "0x3468d9a041047903:0xfb9be169fc1d4cba",
      "description": "獨特選書品味的空間，愛書人的秘密基地",
      "city": "南投縣",
      "category": "書店",
      "lat": 23.964300500000004,
      "lng": 120.9646178
    },
    {
      "name": "Lumaq 露瑪恪｜咖啡．選物",
      "url": "https://www.google.com/maps/place/Lumaq+%E9%9C%B2%E7%91%AA%E6%81%AA%EF%BD%9C%E5%92%96%E5%95%A1%EF%BC%8E%E9%81%B8%E7%89%A9/data=!4m2!3m1!1s0x3442a9025d030d35:0xe395e1ffa831e069",
      "place_id": "0x3442a9025d030d35:0xe395e1ffa831e069",
      "description": "用心沖煮的咖啡，舒適的品飲空間",
      "city": "臺北市",
      "category": "咖啡廳",
      "lat": 25.0468256,
      "lng": 121.5045372
    },
    {
      "name": "回甘Aftertaste (書、茶、咖啡、好食），公休日及供餐時間請至FB&IG查看。",
      "url": "https://www.google.com/maps/place/%E5%9B%9E%E7%94%98Aftertaste+%28%E6%9B%B8%E3%80%81%E8%8C%B6%E3%80%81%E5%92%96%E5%95%A1%E3%80%81%E5%A5%BD%E9%A3%9F%EF%BC%89%EF%BC%8C%E5%85%AC%E4%BC%91%E6%97%A5%E5%8F%8A%E4%BE%9B%E9%A4%90%E6%99%82%E9%96%93%E8%AB%8B%E8%87%B3FB%26IG%E6%9F%A5%E7%9C%8B%E3%80%82/data=!4m2!3m1!1s0x34693d6ad6be77e5:0x3532f4d6c53e7c8b",
      "place_id": "0x34693d6ad6be77e5:0x3532f4d6c53e7c8b",
      "description": "精選茶飲專賣，品味台灣好茶的香醇",
      "city": "臺中市",
      "category": "咖啡廳",
      "lat": 24.1555289,
      "lng": 120.63018079999999
    },
    {
      "name": "Match Café 默契咖啡",
      "url": "https://www.google.com/maps/place/Match+Caf%C3%A9+%E9%BB%98%E5%A5%91%E5%92%96%E5%95%A1/data=!4m2!3m1!1s0x34693d8f0738abe1:0x9eba32347c1368a5",
      "place_id": "0x34693d8f0738abe1:0x9eba32347c1368a5",
      "description": "用心沖煮的咖啡，舒適的品飲空間",
      "city": "臺中市",
      "category": "咖啡廳",
      "lat": 24.161639,
      "lng": 120.65206440000001
    },
    {
      "name": "文忠葬儀有限公司",
      "url": "https://www.google.com/maps/place/%E6%96%87%E5%BF%A0%E8%91%AC%E5%84%80%E6%9C%89%E9%99%90%E5%85%AC%E5%8F%B8/data=!4m2!3m1!1s0x346915074a48392f:0xd5de80f98dcf2064",
      "place_id": "0x346915074a48392f:0xd5de80f98dcf2064",
      "description": "生活中的好幫手，提供便利服務",
      "city": "臺中市",
      "category": "其他",
      "lat": 24.183911500000004,
      "lng": 120.60251079999999
    },
    {
      "name": "人家是女生",
      "url": "https://www.google.com/maps/place/%E4%BA%BA%E5%AE%B6%E6%98%AF%E5%A5%B3%E7%94%9F/data=!4m2!3m1!1s0x34693d6ffb38a6f1:0x968604a5962a72b7",
      "place_id": "0x34693d6ffb38a6f1:0x968604a5962a72b7",
      "description": "獨特的存在，值得親自探索的特色空間",
      "city": "臺中市",
      "category": "其他",
      "lat": 24.171311199999998,
      "lng": 120.6414859
    },
    {
      "name": "Coffee Melbourne 墨爾本咖啡",
      "url": "https://www.google.com/maps/place/Coffee+Melbourne+%E5%A2%A8%E7%88%BE%E6%9C%AC%E5%92%96%E5%95%A1/data=!4m2!3m1!1s0x346917d89cff1879:0xf72acbf678aa2ba7",
      "place_id": "0x346917d89cff1879:0xf72acbf678aa2ba7",
      "description": "用心沖煮的咖啡，舒適的品飲空間",
      "city": "臺中市",
      "category": "咖啡廳",
      "lat": 24.1632932,
      "lng": 120.68126509999999
    },
    {
      "name": "社團法人台灣基地協會",
      "url": "https://www.google.com/maps/place/%E7%A4%BE%E5%9C%98%E6%B3%95%E4%BA%BA%E5%8F%B0%E7%81%A3%E5%9F%BA%E5%9C%B0%E5%8D%94%E6%9C%83/data=!4m2!3m1!1s0x34693d67b1cb3ea3:0x198d35e2f37fa80",
      "place_id": "0x34693d67b1cb3ea3:0x198d35e2f37fa80",
      "description": "生活中的好幫手，提供便利服務",
      "city": "臺中市",
      "category": "其他",
      "lat": 24.158658399999997,
      "lng": 120.6914256
    },
    {
      "name": "明賢行",
      "url": "https://www.google.com/maps/place/%E6%98%8E%E8%B3%A2%E8%A1%8C/data=!4m2!3m1!1s0x34693d6e915bebdb:0xc2a9aee47ca59369",
      "place_id": "0x34693d6e915bebdb:0xc2a9aee47ca59369",
      "description": "獨特的存在，值得親自探索的特色空間",
      "city": "臺中市",
      "category": "其他",
      "lat": 24.148008999999995,
      "lng": 120.68141580000001
    },
    {
      "name": "豆吉小舖豆漿早午餐專賣店",
      "url": "https://www.google.com/maps/place/%E8%B1%86%E5%90%89%E5%B0%8F%E8%88%96%E8%B1%86%E6%BC%BF%E6%97%A9%E5%8D%88%E9%A4%90%E5%B0%88%E8%B3%A3%E5%BA%97/data=!4m2!3m1!1s0x34693d7791e313cf:0xf627455bf41fad1a",
      "place_id": "0x34693d7791e313cf:0xf627455bf41fad1a",
      "description": "用心烹調的美味料理，值得一訪",
      "city": "臺中市",
      "category": "美食",
      "lat": 24.154699,
      "lng": 120.66785399999999
    },
    {
      "name": "青島物語(刈包咖啡店、飲料、簡餐、甜點、場地租借、外燴餐盒、私廚料理)",
      "url": "https://www.google.com/maps/place/%E9%9D%92%E5%B3%B6%E7%89%A9%E8%AA%9E%28%E5%88%88%E5%8C%85%E5%92%96%E5%95%A1%E5%BA%97%E3%80%81%E9%A3%B2%E6%96%99%E3%80%81%E7%B0%A1%E9%A4%90%E3%80%81%E7%94%9C%E9%BB%9E%E3%80%81%E5%A0%B4%E5%9C%B0%E7%A7%9F%E5%80%9F%E3%80%81%E5%A4%96%E7%87%B4%E9%A4%90%E7%9B%92%E3%80%81%E7%A7%81%E5%BB%9A%E6%96%99%E7%90%86%29/data=!4m2!3m1!1s0x346917392c666d8f:0xdb77a1e6ff4dbdd",
      "place_id": "0x346917392c666d8f:0xdb77a1e6ff4dbdd",
      "description": "用心沖煮的咖啡，舒適的品飲空間",
      "city": "臺中市",
      "category": "咖啡廳",
      "lat": 24.171754999999997,
      "lng": 120.674466
    },
    {
      "name": "KICKBONE COFFEE ( •_• ) 小店無訂位",
      "url": "https://www.google.com/maps/place/KICKBONE+COFFEE+%28+%E2%80%A2_%E2%80%A2+%29+%E5%B0%8F%E5%BA%97%E7%84%A1%E8%A8%82%E4%BD%8D/data=!4m2!3m1!1s0x34693df0636a4159:0xd85b20102b347ab5",
      "place_id": "0x34693df0636a4159:0xd85b20102b347ab5",
      "description": "用心沖煮的咖啡，舒適的品飲空間",
      "city": "臺中市",
      "category": "咖啡廳",
      "lat": 24.161816599999995,
      "lng": 120.6677657
    },
    {
      "name": "進安商號",
      "url": "https://www.google.com/maps/place/%E9%80%B2%E5%AE%89%E5%95%86%E8%99%9F/data=!4m2!3m1!1s0x34693d1a9c29e053:0xd552773960d2f77f",
      "place_id": "0x34693d1a9c29e053:0xd552773960d2f77f",
      "description": "獨特的存在，值得親自探索的特色空間",
      "city": "臺中市",
      "category": "其他",
      "lat": 24.131277399999995,
      "lng": 120.67928549999999
    },
    {
      "name": "禾意地政士事務所",
      "url": "https://www.google.com/maps/place/%E7%A6%BE%E6%84%8F%E5%9C%B0%E6%94%BF%E5%A3%AB%E4%BA%8B%E5%8B%99%E6%89%80/data=!4m2!3m1!1s0x34693d0eabe4b737:0xe2453516b37dda8b",
      "place_id": "0x34693d0eabe4b737:0xe2453516b37dda8b",
      "description": "生活中的好幫手，提供便利服務",
      "city": "臺中市",
      "category": "其他",
      "lat": 24.1429974,
      "lng": 120.7055652
    },
    {
      "name": "繾綣 CHUAN Flowers (不定休•預約制服務) • 乾燥花、花藝課程、婚禮佈置",
      "url": "https://www.google.com/maps/place/%E7%B9%BE%E7%B6%A3+CHUAN+Flowers+%28%E4%B8%8D%E5%AE%9A%E4%BC%91%E2%80%A2%E9%A0%90%E7%B4%84%E5%88%B6%E6%9C%8D%E5%8B%99%29+%E2%80%A2+%E4%B9%BE%E7%87%A5%E8%8A%B1%E3%80%81%E8%8A%B1%E8%97%9D%E8%AA%B2%E7%A8%8B%E3%80%81%E5%A9%9A%E7%A6%AE%E4%BD%88%E7%BD%AE/data=!4m2!3m1!1s0x34693dbb9a844c8f:0xbbb192531e7289dd",
      "place_id": "0x34693dbb9a844c8f:0xbbb192531e7289dd",
      "description": "生活中的好幫手，提供便利服務",
      "city": "臺中市",
      "category": "藝文/工作室",
      "lat": 24.139105,
      "lng": 120.66129919999999
    },
    {
      "name": "PhysiomotionLab 動作實驗室",
      "url": "https://www.google.com/maps/place/PhysiomotionLab+%E5%8B%95%E4%BD%9C%E5%AF%A6%E9%A9%97%E5%AE%A4/data=!4m2!3m1!1s0x34693d23d531d557:0x57814b4646497757",
      "place_id": "0x34693d23d531d557:0x57814b4646497757",
      "description": "獨特的存在，值得親自探索的特色空間",
      "city": "臺中市",
      "category": "其他",
      "lat": 24.1479859,
      "lng": 120.6545739
    },
    {
      "name": "遊空-玩樂研究所",
      "url": "https://www.google.com/maps/place/%E9%81%8A%E7%A9%BA-%E7%8E%A9%E6%A8%82%E7%A0%94%E7%A9%B6%E6%89%80/data=!4m2!3m1!1s0x34693daa0f2ac569:0xb0bb8d3088716026",
      "place_id": "0x34693daa0f2ac569:0xb0bb8d3088716026",
      "description": "獨特的存在，值得親自探索的特色空間",
      "city": "臺中市",
      "category": "其他",
      "lat": 24.130989,
      "lng": 120.66255570000001
    },
    {
      "name": "郭冰-傳統古早味冰品",
      "url": "https://www.google.com/maps/place/%E9%83%AD%E5%86%B0-%E5%82%B3%E7%B5%B1%E5%8F%A4%E6%97%A9%E5%91%B3%E5%86%B0%E5%93%81/data=!4m2!3m1!1s0x34693d9c0a8e86eb:0x371cf86690e59071",
      "place_id": "0x34693d9c0a8e86eb:0x371cf86690e59071",
      "description": "清涼消暑的冰品甜點，夏日必訪",
      "city": "臺中市",
      "category": "美食",
      "lat": 24.152881500000003,
      "lng": 120.66037600000001
    },
    {
      "name": "美軍豆乳冰",
      "url": "https://www.google.com/maps/place/%E7%BE%8E%E8%BB%8D%E8%B1%86%E4%B9%B3%E5%86%B0/data=!4m2!3m1!1s0x34693da1bdfa86c3:0xa09d14c3f724439a",
      "place_id": "0x34693da1bdfa86c3:0xa09d14c3f724439a",
      "description": "清涼消暑的冰品甜點，夏日必訪",
      "city": "臺中市",
      "category": "美食",
      "lat": 24.1445032,
      "lng": 120.6614304
    },
    {
      "name": "有筆x鋼筆工作室 (網購請看ig / fb粉絲專頁)",
      "url": "https://www.google.com/maps/place/%E6%9C%89%E7%AD%86x%E9%8B%BC%E7%AD%86%E5%B7%A5%E4%BD%9C%E5%AE%A4+%28%E7%B6%B2%E8%B3%BC%E8%AB%8B%E7%9C%8Big+%2F+fb%E7%B2%89%E7%B5%B2%E5%B0%88%E9%A0%81%29/data=!4m2!3m1!1s0x34693d2d304439eb:0x9413d624230d8105",
      "place_id": "0x34693d2d304439eb:0x9413d624230d8105",
      "description": "獨特選書品味的空間，愛書人的秘密基地",
      "city": "臺中市",
      "category": "藝文/工作室",
      "lat": 24.154142399999994,
      "lng": 120.66114080000001
    },
    {
      "name": "中一中藥行",
      "url": "https://www.google.com/maps/place/%E4%B8%AD%E4%B8%80%E4%B8%AD%E8%97%A5%E8%A1%8C/data=!4m2!3m1!1s0x34693d9f52c3e4eb:0xf8897d59acfea768",
      "place_id": "0x34693d9f52c3e4eb:0xf8897d59acfea768",
      "description": "獨特的存在，值得親自探索的特色空間",
      "city": "臺中市",
      "category": "其他",
      "lat": 24.146873,
      "lng": 120.6603485
    },
    {
      "name": "Folk Gathering",
      "url": "https://www.google.com/maps/place/Folk+Gathering/data=!4m2!3m1!1s0x34693de6e31a052f:0x4c3f6c94a1ac678b",
      "place_id": "0x34693de6e31a052f:0x4c3f6c94a1ac678b",
      "description": "獨特的存在，值得親自探索的特色空間",
      "city": "臺中市",
      "category": "其他",
      "lat": 24.136257,
      "lng": 120.65847799999999
    },
    {
      "name": "Flora Caffè",
      "url": "https://www.google.com/maps/place/Flora+Caff%C3%A8/data=!4m2!3m1!1s0x34693d0c4a932135:0x6dfa27660c842e37",
      "place_id": "0x34693d0c4a932135:0x6dfa27660c842e37",
      "description": "獨特的存在，值得親自探索的特色空間",
      "city": "臺中市",
      "category": "其他",
      "lat": 24.1391694,
      "lng": 120.6746235
    },
    {
      "name": "喫茶月滿・月滿小書店",
      "url": "https://www.google.com/maps/place/%E5%96%AB%E8%8C%B6%E6%9C%88%E6%BB%BF%E3%83%BB%E6%9C%88%E6%BB%BF%E5%B0%8F%E6%9B%B8%E5%BA%97/data=!4m2!3m1!1s0x34693d14a976dc1d:0x5395ac74f232fd36",
      "place_id": "0x34693d14a976dc1d:0x5395ac74f232fd36",
      "description": "精選茶飲專賣，品味台灣好茶的香醇",
      "city": "臺中市",
      "category": "飲料店",
      "lat": 24.1397987,
      "lng": 120.6806619
    },
    {
      "name": "芳泉青草行",
      "url": "https://www.google.com/maps/place/%E8%8A%B3%E6%B3%89%E9%9D%92%E8%8D%89%E8%A1%8C/data=!4m2!3m1!1s0x34693d0065866c57:0x4163d2f60d97d86d",
      "place_id": "0x34693d0065866c57:0x4163d2f60d97d86d",
      "description": "獨特的存在，值得親自探索的特色空間",
      "city": "臺中市",
      "category": "其他",
      "lat": 24.140472,
      "lng": 120.6846282
    },
    {
      "name": "早日早點Zali Breakfast 2/13店休一天",
      "url": "https://www.google.com/maps/place/%E6%97%A9%E6%97%A5%E6%97%A9%E9%BB%9EZali+Breakfast+2%2F13%E5%BA%97%E4%BC%91%E4%B8%80%E5%A4%A9/data=!4m2!3m1!1s0x34691a0651367501:0xa430d3982f13f343",
      "place_id": "0x34691a0651367501:0xa430d3982f13f343",
      "description": "用心烹調的美味料理，值得一訪",
      "city": "臺中市",
      "category": "購物",
      "lat": 24.249435400000003,
      "lng": 120.71531409999999
    },
    {
      "name": "豐源飯店",
      "url": "https://www.google.com/maps/place/%E8%B1%90%E6%BA%90%E9%A3%AF%E5%BA%97/data=!4m2!3m1!1s0x34691a0f3b6c91af:0xc78d3cacb539395c",
      "place_id": "0x34691a0f3b6c91af:0xc78d3cacb539395c",
      "description": "生活中的好幫手，提供便利服務",
      "city": "臺中市",
      "category": "美食",
      "lat": 24.251230499999995,
      "lng": 120.71874910000001
    },
    {
      "name": "鹿野結米家（上下舖單人床位/青年旅館/預約制手作早餐）",
      "url": "https://www.google.com/maps/place/%E9%B9%BF%E9%87%8E%E7%B5%90%E7%B1%B3%E5%AE%B6%EF%BC%88%E4%B8%8A%E4%B8%8B%E8%88%96%E5%96%AE%E4%BA%BA%E5%BA%8A%E4%BD%8D%2F%E9%9D%92%E5%B9%B4%E6%97%85%E9%A4%A8%2F%E9%A0%90%E7%B4%84%E5%88%B6%E6%89%8B%E4%BD%9C%E6%97%A9%E9%A4%90%EF%BC%89/data=!4m2!3m1!1s0x346fa457ffeef993:0x103a727e2d4c2f62",
      "place_id": "0x346fa457ffeef993:0x103a727e2d4c2f62",
      "description": "生活中的好幫手，提供便利服務",
      "city": "臺東縣",
      "category": "美食",
      "lat": 22.893480999999998,
      "lng": 121.13574039999999
    },
    {
      "name": "都蘭朋友家 Dulan Friends Hostel",
      "url": "https://www.google.com/maps/place/%E9%83%BD%E8%98%AD%E6%9C%8B%E5%8F%8B%E5%AE%B6+Dulan+Friends+Hostel/data=!4m2!3m1!1s0x346fa3444f76b2d3:0x4a83b27df7d5f25",
      "place_id": "0x346fa3444f76b2d3:0x4a83b27df7d5f25",
      "description": "舒適住宿空間，旅途中的溫馨歸處",
      "city": "臺東縣",
      "category": "其他",
      "lat": 22.874702300000003,
      "lng": 121.2297711
    },
    {
      "name": "天牛教授 - 原味廚神 PROFESSOR'S KITCHEN -台東當地景觀餐廳、隱藏無菜單料理、人氣特色餐廳",
      "url": "https://www.google.com/maps/place/%E5%A4%A9%E7%89%9B%E6%95%99%E6%8E%88+-+%E5%8E%9F%E5%91%B3%E5%BB%9A%E7%A5%9E+PROFESSOR%27S+KITCHEN+-%E5%8F%B0%E6%9D%B1%E7%95%B6%E5%9C%B0%E6%99%AF%E8%A7%80%E9%A4%90%E5%BB%B3%E3%80%81%E9%9A%B1%E8%97%8F%E7%84%A1%E8%8F%9C%E5%96%AE%E6%96%99%E7%90%86%E3%80%81%E4%BA%BA%E6%B0%A3%E7%89%B9%E8%89%B2%E9%A4%90%E5%BB%B3/data=!4m2!3m1!1s0x346fa386a19090eb:0xb44b937ba9cd8e27",
      "place_id": "0x346fa386a19090eb:0xb44b937ba9cd8e27",
      "description": "用心烹調的美味料理，值得一訪",
      "city": "臺東縣",
      "category": "美食",
      "lat": 22.88121,
      "lng": 121.2328156
    },
    {
      "name": "小沐醬小木匠",
      "url": "https://www.google.com/maps/place/%E5%B0%8F%E6%B2%90%E9%86%AC%E5%B0%8F%E6%9C%A8%E5%8C%A0/data=!4m2!3m1!1s0x346fc90017a78ef7:0x9812115023a461d8",
      "place_id": "0x346fc90017a78ef7:0x9812115023a461d8",
      "description": "獨特的存在，值得親自探索的特色空間",
      "city": "臺東縣",
      "category": "其他",
      "lat": 22.706972,
      "lng": 121.0408731
    },
    {
      "name": "目目咖啡【自家烘培｜咖啡豆專賣 | 整模蛋糕預定 】",
      "url": "https://www.google.com/maps/place/%E7%9B%AE%E7%9B%AE%E5%92%96%E5%95%A1%E3%80%90%E8%87%AA%E5%AE%B6%E7%83%98%E5%9F%B9%EF%BD%9C%E5%92%96%E5%95%A1%E8%B1%86%E5%B0%88%E8%B3%A3+%7C+%E6%95%B4%E6%A8%A1%E8%9B%8B%E7%B3%95%E9%A0%90%E5%AE%9A+%E3%80%91/data=!4m2!3m1!1s0x346fb96b96d901b9:0x92e95b15ecf76fda",
      "place_id": "0x346fb96b96d901b9:0x92e95b15ecf76fda",
      "description": "用心沖煮的咖啡，舒適的品飲空間",
      "city": "臺東縣",
      "category": "咖啡廳",
      "lat": 22.762281700000003,
      "lng": 121.14354200000001
    },
    {
      "name": "日光咖啡館",
      "url": "https://www.google.com/maps/place/%E6%97%A5%E5%85%89%E5%92%96%E5%95%A1%E9%A4%A8/data=!4m2!3m1!1s0x346fb9128f44674d:0x6d20354f32b79b00",
      "place_id": "0x346fb9128f44674d:0x6d20354f32b79b00",
      "description": "用心沖煮的咖啡，舒適的品飲空間",
      "city": "臺東縣",
      "category": "咖啡廳",
      "lat": 22.7578754,
      "lng": 121.1374711
    },
    {
      "name": "台客夫妻串燒店",
      "url": "https://www.google.com/maps/place/%E5%8F%B0%E5%AE%A2%E5%A4%AB%E5%A6%BB%E4%B8%B2%E7%87%92%E5%BA%97/data=!4m2!3m1!1s0x346fb90ad1f01cfb:0xdbebdad6fb7c29de",
      "place_id": "0x346fb90ad1f01cfb:0xdbebdad6fb7c29de",
      "description": "用心烹調的美味料理，值得一訪",
      "city": "臺東縣",
      "category": "購物",
      "lat": 22.7611514,
      "lng": 121.1405281
    },
    {
      "name": "怪豆咖啡 ODDO COFFEE",
      "url": "https://www.google.com/maps/place/%E6%80%AA%E8%B1%86%E5%92%96%E5%95%A1+ODDO+COFFEE/data=!4m2!3m1!1s0x346fb96c3e4e5e7f:0x3275fe1bd59f74a2",
      "place_id": "0x346fb96c3e4e5e7f:0x3275fe1bd59f74a2",
      "description": "用心沖煮的咖啡，舒適的品飲空間",
      "city": "臺東縣",
      "category": "咖啡廳",
      "lat": 22.763656899999994,
      "lng": 121.14092070000001
    },
    {
      "name": "浩世音樂製作",
      "url": "https://www.google.com/maps/place/%E6%B5%A9%E4%B8%96%E9%9F%B3%E6%A8%82%E8%A3%BD%E4%BD%9C/data=!4m2!3m1!1s0x3442aa7a45edcf9f:0x75564df815135e9a",
      "place_id": "0x3442aa7a45edcf9f:0x75564df815135e9a",
      "description": "生活中的好幫手，提供便利服務",
      "city": "臺北市",
      "category": "其他",
      "lat": 24.9888462,
      "lng": 121.57334159999999
    },
    {
      "name": "這咖啡 This Café",
      "url": "https://www.google.com/maps/place/%E9%80%99%E5%92%96%E5%95%A1+This+Caf%C3%A9/data=!4m2!3m1!1s0x346801fa1dbaa21d:0xe839145760f95d80",
      "place_id": "0x346801fa1dbaa21d:0xe839145760f95d80",
      "description": "用心沖煮的咖啡，舒適的品飲空間",
      "city": "新北市",
      "category": "咖啡廳",
      "lat": 24.979208,
      "lng": 121.542908
    },
    {
      "name": "暗坑文化工作室",
      "url": "https://www.google.com/maps/place/%E6%9A%97%E5%9D%91%E6%96%87%E5%8C%96%E5%B7%A5%E4%BD%9C%E5%AE%A4/data=!4m2!3m1!1s0x34680365edebff3f:0x64b3adc87aed8023",
      "place_id": "0x34680365edebff3f:0x64b3adc87aed8023",
      "description": "獨特選書品味的空間，愛書人的秘密基地",
      "city": "新北市",
      "category": "藝文/工作室",
      "lat": 24.9484109,
      "lng": 121.49472209999999
    },
    {
      "name": "水牛書店 台北店",
      "url": "https://www.google.com/maps/place/%E6%B0%B4%E7%89%9B%E6%9B%B8%E5%BA%97+%E5%8F%B0%E5%8C%97%E5%BA%97/data=!4m2!3m1!1s0x3442aa2bcd69c861:0x3997c32886e9ea21",
      "place_id": "0x3442aa2bcd69c861:0x3997c32886e9ea21",
      "description": "獨特選書品味的空間，愛書人的秘密基地",
      "city": "臺北市",
      "category": "書店",
      "lat": 25.02630745,
      "lng": 121.54384595000002
    },
    {
      "name": "水準書局",
      "url": "https://www.google.com/maps/place/%E6%B0%B4%E6%BA%96%E6%9B%B8%E5%B1%80/data=!4m2!3m1!1s0x3442a9857bf462f9:0x8badab936b15d36a",
      "place_id": "0x3442a9857bf462f9:0x8badab936b15d36a",
      "description": "獨特選書品味的空間，愛書人的秘密基地",
      "city": "臺北市",
      "category": "書店",
      "lat": 25.024647299999998,
      "lng": 121.52805839999999
    },
    {
      "name": "鳥咖啡（無訂位）",
      "url": "https://www.google.com/maps/place/%E9%B3%A5%E5%92%96%E5%95%A1%EF%BC%88%E7%84%A1%E8%A8%82%E4%BD%8D%EF%BC%89/data=!4m2!3m1!1s0x3442abc9f38b2f31:0xe90e925c29d9ae72",
      "place_id": "0x3442abc9f38b2f31:0xe90e925c29d9ae72",
      "description": "用心沖煮的咖啡，舒適的品飲空間",
      "city": "臺北市",
      "category": "咖啡廳",
      "lat": 25.0333526,
      "lng": 121.5586728
    },
    {
      "name": "名山牙醫診所",
      "url": "https://www.google.com/maps/place/%E5%90%8D%E5%B1%B1%E7%89%99%E9%86%AB%E8%A8%BA%E6%89%80/data=!4m2!3m1!1s0x3442ab18fe545f79:0xbb734ddd525560db",
      "place_id": "0x3442ab18fe545f79:0xbb734ddd525560db",
      "description": "專業醫療服務，守護您的健康",
      "city": "臺北市",
      "category": "醫療",
      "lat": 25.0341439,
      "lng": 121.543263
    },
    {
      "name": "山峸二手書店 Ridgebooks",
      "url": "https://www.google.com/maps/place/%E5%B1%B1%E5%B3%B8%E4%BA%8C%E6%89%8B%E6%9B%B8%E5%BA%97+Ridgebooks/data=!4m2!3m1!1s0x3442ae5728f99535:0x9af89310ca5f29d5",
      "place_id": "0x3442ae5728f99535:0x9af89310ca5f29d5",
      "description": "獨特選書品味的空間，愛書人的秘密基地",
      "city": "臺北市",
      "category": "書店",
      "lat": 25.131137000000003,
      "lng": 121.5000675
    },
    {
      "name": "古早弄糖",
      "url": "https://www.google.com/maps/place/%E5%8F%A4%E6%97%A9%E5%BC%84%E7%B3%96/data=!4m2!3m1!1s0x3442a7a37626caf7:0x22742e31e5c6c934",
      "place_id": "0x3442a7a37626caf7:0x22742e31e5c6c934",
      "description": "精心製作的甜點，療癒味蕾好去處",
      "city": "新北市",
      "category": "其他",
      "lat": 25.051340000000003,
      "lng": 121.42769
    },
    {
      "name": "三協成餅舖",
      "url": "https://www.google.com/maps/place/%E4%B8%89%E5%8D%94%E6%88%90%E9%A4%85%E8%88%96/data=!4m2!3m1!1s0x3442a5599d0436e9:0xf2da5d7ec8238d72",
      "place_id": "0x3442a5599d0436e9:0xf2da5d7ec8238d72",
      "description": "用心烹調的美味料理，值得一訪",
      "city": "新北市",
      "category": "其他",
      "lat": 25.1696556,
      "lng": 121.4405912
    },
    {
      "name": "天曉得",
      "url": "https://www.google.com/maps/place/%E5%A4%A9%E6%9B%89%E5%BE%97/data=!4m2!3m1!1s0x3442a98f0cf37859:0x93364e29f6c0ad5b",
      "place_id": "0x3442a98f0cf37859:0x93364e29f6c0ad5b",
      "description": "獨特的存在，值得親自探索的特色空間",
      "city": "臺北市",
      "category": "其他",
      "lat": 25.0226081,
      "lng": 121.52885560000001
    },
    {
      "name": "尖蚪",
      "url": "https://www.google.com/maps/place/%E5%B0%96%E8%9A%AA/data=!4m2!3m1!1s0x3442a9f485d88465:0xb41311c2177c694c",
      "place_id": "0x3442a9f485d88465:0xb41311c2177c694c",
      "description": "獨特的存在，值得親自探索的特色空間",
      "city": "臺北市",
      "category": "其他",
      "lat": 25.0104605,
      "lng": 121.5318943
    },
    {
      "name": "Legal Girl法律女孩花藝事務所",
      "url": "https://www.google.com/maps/place/Legal+Girl%E6%B3%95%E5%BE%8B%E5%A5%B3%E5%AD%A9%E8%8A%B1%E8%97%9D%E4%BA%8B%E5%8B%99%E6%89%80/data=!4m2!3m1!1s0x3442ab388ef23247:0xcf98cc08abba23fc",
      "place_id": "0x3442ab388ef23247:0xcf98cc08abba23fc",
      "description": "生活中的好幫手，提供便利服務",
      "city": "臺北市",
      "category": "藝文/工作室",
      "lat": 25.024509099999996,
      "lng": 121.52559970000001
    },
    {
      "name": "水果攤",
      "url": "https://www.google.com/maps/place/%E6%B0%B4%E6%9E%9C%E6%94%A4/data=!4m2!3m1!1s0x3442a90042124e0d:0x13bb7bd24710fd62",
      "place_id": "0x3442a90042124e0d:0x13bb7bd24710fd62",
      "description": "精心製作的甜點，療癒味蕾好去處",
      "city": "臺北市",
      "category": "其他",
      "lat": 25.064503899999995,
      "lng": 121.52578820000001
    },
    {
      "name": "Continue? Gaming Bar電玩餐酒吧",
      "url": "https://www.google.com/maps/place/Continue%3F+Gaming+Bar%E9%9B%BB%E7%8E%A9%E9%A4%90%E9%85%92%E5%90%A7/data=!4m2!3m1!1s0x3442a96311bc1f67:0xea160222cd20f407",
      "place_id": "0x3442a96311bc1f67:0xea160222cd20f407",
      "description": "特色餐酒館，美食與美酒的饗宴",
      "city": "臺北市",
      "category": "酒吧",
      "lat": 25.046152499999998,
      "lng": 121.5331372
    },
    {
      "name": "傑飛貿易股份有限公司",
      "url": "https://www.google.com/maps/place/%E5%82%91%E9%A3%9B%E8%B2%BF%E6%98%93%E8%82%A1%E4%BB%BD%E6%9C%89%E9%99%90%E5%85%AC%E5%8F%B8/data=!4m2!3m1!1s0x3442a9676860bfe3:0x4d7cc997e0172945",
      "place_id": "0x3442a9676860bfe3:0x4d7cc997e0172945",
      "description": "生活中的好幫手，提供便利服務",
      "city": "臺北市",
      "category": "其他",
      "lat": 25.0550017,
      "lng": 121.52974069999999
    },
    {
      "name": "CUP",
      "url": "https://www.google.com/maps/place/CUP/data=!4m2!3m1!1s0x3442ab0330c3b7ad:0x24ed0e6697b14b35",
      "place_id": "0x3442ab0330c3b7ad:0x24ed0e6697b14b35",
      "description": "用心沖煮的咖啡，舒適的品飲空間",
      "city": "臺北市",
      "category": "其他",
      "lat": 25.050964999999994,
      "lng": 121.5658688
    },
    {
      "name": "三橋號",
      "url": "https://www.google.com/maps/place/%E4%B8%89%E6%A9%8B%E8%99%9F/data=!4m2!3m1!1s0x3442abc1fdc94d29:0x24529f7079e61a1b",
      "place_id": "0x3442abc1fdc94d29:0x24529f7079e61a1b",
      "description": "獨特的存在，值得親自探索的特色空間",
      "city": "臺北市",
      "category": "其他",
      "lat": 25.049702,
      "lng": 121.554581
    },
    {
      "name": "雁域文化中心：咖啡與茶｜小點心｜共享空間｜閱讀｜花藝｜展覽演出｜聚會活動｜場地租借｜不限時咖啡廳｜慶生抓周｜寶寶性別派對｜婚禮花束｜送禮顧問｜節慶裝飾｜派對佈置",
      "url": "https://www.google.com/maps/place/%E9%9B%81%E5%9F%9F%E6%96%87%E5%8C%96%E4%B8%AD%E5%BF%83%EF%BC%9A%E5%92%96%E5%95%A1%E8%88%87%E8%8C%B6%EF%BD%9C%E5%B0%8F%E9%BB%9E%E5%BF%83%EF%BD%9C%E5%85%B1%E4%BA%AB%E7%A9%BA%E9%96%93%EF%BD%9C%E9%96%B1%E8%AE%80%EF%BD%9C%E8%8A%B1%E8%97%9D%EF%BD%9C%E5%B1%95%E8%A6%BD%E6%BC%94%E5%87%BA%EF%BD%9C%E8%81%9A%E6%9C%83%E6%B4%BB%E5%8B%95%EF%BD%9C%E5%A0%B4%E5%9C%B0%E7%A7%9F%E5%80%9F%EF%BD%9C%E4%B8%8D%E9%99%90%E6%99%82%E5%92%96%E5%95%A1%E5%BB%B3%EF%BD%9C%E6%85%B6%E7%94%9F%E6%8A%93%E5%91%A8%EF%BD%9C%E5%AF%B6%E5%AF%B6%E6%80%A7%E5%88%A5%E6%B4%BE%E5%B0%8D%EF%BD%9C%E5%A9%9A%E7%A6%AE%E8%8A%B1%E6%9D%9F%EF%BD%9C%E9%80%81%E7%A6%AE%E9%A1%A7%E5%95%8F%EF%BD%9C%E7%AF%80%E6%85%B6%E8%A3%9D%E9%A3%BE%EF%BD%9C%E6%B4%BE%E5%B0%8D%E4%BD%88%E7%BD%AE/data=!4m2!3m1!1s0x3442abec437764cf:0x6d76a0d4022a477c",
      "place_id": "0x3442abec437764cf:0x6d76a0d4022a477c",
      "description": "精選茶飲專賣，品味台灣好茶的香醇",
      "city": "臺北市",
      "category": "咖啡廳",
      "lat": 25.038012199999997,
      "lng": 121.58284680000001
    },
    {
      "name": "琇琳專業衣服修改",
      "url": "https://www.google.com/maps/place/%E7%90%87%E7%90%B3%E5%B0%88%E6%A5%AD%E8%A1%A3%E6%9C%8D%E4%BF%AE%E6%94%B9/data=!4m2!3m1!1s0x3442acbb1750b239:0x55915963654167e5",
      "place_id": "0x3442acbb1750b239:0x55915963654167e5",
      "description": "生活中的好幫手，提供便利服務",
      "city": "臺北市",
      "category": "購物",
      "lat": 25.069689999999998,
      "lng": 121.61308799999999
    },
    {
      "name": "台灣北社",
      "url": "https://www.google.com/maps/place/%E5%8F%B0%E7%81%A3%E5%8C%97%E7%A4%BE/data=!4m2!3m1!1s0x3442a994b4d6cd4b:0xfdda3bd98488b339",
      "place_id": "0x3442a994b4d6cd4b:0xfdda3bd98488b339",
      "description": "獨特的存在，值得親自探索的特色空間",
      "city": "臺北市",
      "category": "其他",
      "lat": 25.0438265,
      "lng": 121.52292860000001
    },
    {
      "name": "書與咖啡&喵甜圈",
      "url": "https://www.google.com/maps/place/%E6%9B%B8%E8%88%87%E5%92%96%E5%95%A1%26%E5%96%B5%E7%94%9C%E5%9C%88/data=!4m2!3m1!1s0x3442ab5ab83090d5:0xd58fae2ae9e30212",
      "place_id": "0x3442ab5ab83090d5:0xd58fae2ae9e30212",
      "description": "用心沖煮的咖啡，舒適的品飲空間",
      "city": "臺北市",
      "category": "咖啡廳",
      "lat": 25.046865000000004,
      "lng": 121.615528
    },
    {
      "name": "無限體育教室 Infinity Physical Education Studio",
      "url": "https://www.google.com/maps/place/%E7%84%A1%E9%99%90%E9%AB%94%E8%82%B2%E6%95%99%E5%AE%A4+Infinity+Physical+Education+Studio/data=!4m2!3m1!1s0x3442ac612d90cd19:0x4501bf56d21a7850",
      "place_id": "0x3442ac612d90cd19:0x4501bf56d21a7850",
      "description": "獨特選書品味的空間，愛書人的秘密基地",
      "city": "臺北市",
      "category": "藝文/工作室",
      "lat": 25.0786893,
      "lng": 121.58176519999999
    },
    {
      "name": "激進工作室",
      "url": "https://www.google.com/maps/place/%E6%BF%80%E9%80%B2%E5%B7%A5%E4%BD%9C%E5%AE%A4/data=!4m2!3m1!1s0x3442abc5356e52f3:0x1208db8d751e8964",
      "place_id": "0x3442abc5356e52f3:0x1208db8d751e8964",
      "description": "獨特選書品味的空間，愛書人的秘密基地",
      "city": "臺北市",
      "category": "藝文/工作室",
      "lat": 25.0420776,
      "lng": 121.5485104
    },
    {
      "name": "左轉有書",
      "url": "https://www.google.com/maps/place/%E5%B7%A6%E8%BD%89%E6%9C%89%E6%9B%B8/data=!4m2!3m1!1s0x3442a97074835251:0x4e993ee9a5b6a1bb",
      "place_id": "0x3442a97074835251:0x4e993ee9a5b6a1bb",
      "description": "獨特選書品味的空間，愛書人的秘密基地",
      "city": "臺北市",
      "category": "書店",
      "lat": 25.0444475,
      "lng": 121.5216671
    },
    {
      "name": "英記福隆便當",
      "url": "https://www.google.com/maps/place/%E8%8B%B1%E8%A8%98%E7%A6%8F%E9%9A%86%E4%BE%BF%E7%95%B6/data=!4m2!3m1!1s0x345d5daadbd5f975:0x760c694b861a95",
      "place_id": "0x345d5daadbd5f975:0x760c694b861a95",
      "description": "用心烹調的美味料理，值得一訪",
      "city": "新北市",
      "category": "其他",
      "lat": 25.017720399999998,
      "lng": 121.9481543
    },
    {
      "name": "非書店",
      "url": "https://www.google.com/maps/place/%E9%9D%9E%E6%9B%B8%E5%BA%97/data=!4m2!3m1!1s0x345d45335eb1a15f:0x3380ed9f22a87dfc",
      "place_id": "0x345d45335eb1a15f:0x3380ed9f22a87dfc",
      "description": "獨特選書品味的空間，愛書人的秘密基地",
      "city": "新北市",
      "category": "書店",
      "lat": 25.119274399999995,
      "lng": 121.86161360000001
    },
    {
      "name": "吾家咖啡·布丁專門店「公休會在臉書、IG限動公告，先點讚追蹤過來才不會撲空」",
      "url": "https://www.google.com/maps/place/%E5%90%BE%E5%AE%B6%E5%92%96%E5%95%A1%C2%B7%E5%B8%83%E4%B8%81%E5%B0%88%E9%96%80%E5%BA%97%E3%80%8C%E5%85%AC%E4%BC%91%E6%9C%83%E5%9C%A8%E8%87%89%E6%9B%B8%E3%80%81IG%E9%99%90%E5%8B%95%E5%85%AC%E5%91%8A%EF%BC%8C%E5%85%88%E9%BB%9E%E8%AE%9A%E8%BF%BD%E8%B9%A4%E9%81%8E%E4%BE%86%E6%89%8D%E4%B8%8D%E6%9C%83%E6%92%B2%E7%A9%BA%E3%80%8D/data=!4m2!3m1!1s0x345d533c101ca137:0x9139ff43325dd1c4",
      "place_id": "0x345d533c101ca137:0x9139ff43325dd1c4",
      "description": "用心沖煮的咖啡，舒適的品飲空間",
      "city": "新北市",
      "category": "咖啡廳",
      "lat": 25.0629918,
      "lng": 121.66058530000001
    },
    {
      "name": "Ho & lin's store",
      "url": "https://www.google.com/maps/place/Ho+%26+lin%27s+store/data=!4m2!3m1!1s0x345d536baa2676e7:0x5eae73dc5289c874",
      "place_id": "0x345d536baa2676e7:0x5eae73dc5289c874",
      "description": "獨特的存在，值得親自探索的特色空間",
      "city": "新北市",
      "category": "其他",
      "lat": 25.066678399999997,
      "lng": 121.6303514
    },
    {
      "name": "片山西點 Mountain Piece",
      "url": "https://www.google.com/maps/place/%E7%89%87%E5%B1%B1%E8%A5%BF%E9%BB%9E+Mountain+Piece/data=!4m2!3m1!1s0x3442a95e89effbd9:0x4ff060b1f77ac1ee",
      "place_id": "0x3442a95e89effbd9:0x4ff060b1f77ac1ee",
      "description": "精心製作的甜點，療癒味蕾好去處",
      "city": "臺北市",
      "category": "其他",
      "lat": 25.022949300000004,
      "lng": 121.54997100000001
    },
    {
      "name": "女巫店",
      "url": "https://www.google.com/maps/place/%E5%A5%B3%E5%B7%AB%E5%BA%97/data=!4m2!3m1!1s0x3442a988ff1b685d:0x25aff7ea838136e7",
      "place_id": "0x3442a988ff1b685d:0x25aff7ea838136e7",
      "description": "獨特的存在，值得親自探索的特色空間",
      "city": "臺北市",
      "category": "購物",
      "lat": 25.0205722,
      "lng": 121.5336417
    },
    {
      "name": "未央咖啡店",
      "url": "https://www.google.com/maps/place/%E6%9C%AA%E5%A4%AE%E5%92%96%E5%95%A1%E5%BA%97/data=!4m2!3m1!1s0x3442aa2dec922001:0xf1592a50aa99e9f9",
      "place_id": "0x3442aa2dec922001:0xf1592a50aa99e9f9",
      "description": "用心沖煮的咖啡，舒適的品飲空間",
      "city": "臺北市",
      "category": "咖啡廳",
      "lat": 25.0262375,
      "lng": 121.5474209
    },
    {
      "name": "配個咖啡吧",
      "url": "https://www.google.com/maps/place/%E9%85%8D%E5%80%8B%E5%92%96%E5%95%A1%E5%90%A7/data=!4m2!3m1!1s0x3442aa36a9b3548f:0xefe76b35f82d6aa3",
      "place_id": "0x3442aa36a9b3548f:0xefe76b35f82d6aa3",
      "description": "用心沖煮的咖啡，舒適的品飲空間",
      "city": "臺北市",
      "category": "咖啡廳",
      "lat": 25.023237299999998,
      "lng": 121.55463940000001
    },
    {
      "name": "影心影像工作室《精緻證件照 非韓式證件照 專業形象照 學士照 全家福 親子照 寵物照 婚紗照 閨蜜照 情侶照 各式紀念寫真 活動記錄 商業拍攝 \n商品攝影 攝影教學 老照片修復 照片沖印 照相館》休息日另行公告(FB粉絲專頁公告)",
      "url": "https://www.google.com/maps/place/%E5%BD%B1%E5%BF%83%E5%BD%B1%E5%83%8F%E5%B7%A5%E4%BD%9C%E5%AE%A4%E3%80%8A%E7%B2%BE%E7%B7%BB%E8%AD%89%E4%BB%B6%E7%85%A7+%E9%9D%9E%E9%9F%93%E5%BC%8F%E8%AD%89%E4%BB%B6%E7%85%A7+%E5%B0%88%E6%A5%AD%E5%BD%A2%E8%B1%A1%E7%85%A7+%E5%AD%B8%E5%A3%AB%E7%85%A7+%E5%85%A8%E5%AE%B6%E7%A6%8F+%E8%A6%AA%E5%AD%90%E7%85%A7+%E5%AF%B5%E7%89%A9%E7%85%A7+%E5%A9%9A%E7%B4%97%E7%85%A7+%E9%96%A8%E8%9C%9C%E7%85%A7+%E6%83%85%E4%BE%B6%E7%85%A7+%E5%90%84%E5%BC%8F%E7%B4%80%E5%BF%B5%E5%AF%AB%E7%9C%9F+%E6%B4%BB%E5%8B%95%E8%A8%98%E9%8C%84+%E5%95%86%E6%A5%AD%E6%8B%8D%E6%94%9D+%0A%E5%95%86%E5%93%81%E6%94%9D%E5%BD%B1+%E6%94%9D%E5%BD%B1%E6%95%99%E5%AD%B8+%E8%80%81%E7%85%A7%E7%89%87%E4%BF%AE%E5%BE%A9+%E7%85%A7%E7%89%87%E6%B2%96%E5%8D%B0+%E7%85%A7%E7%9B%B8%E9%A4%A8%E3%80%8B%E4%BC%91%E6%81%AF%E6%97%A5%E5%8F%A6%E8%A1%8C%E5%85%AC%E5%91%8A%28FB%E7%B2%89%E7%B5%B2%E5%B0%88%E9%A0%81%E5%85%AC%E5%91%8A%29/data=!4m2!3m1!1s0x3442ab99976f1593:0xf3fb743ba33228b1",
      "place_id": "0x3442ab99976f1593:0xf3fb743ba33228b1",
      "description": "獨特選書品味的空間，愛書人的秘密基地",
      "city": "臺北市",
      "category": "藝文/工作室",
      "lat": 25.026410499999994,
      "lng": 121.545712
    },
    {
      "name": "信義牙醫診所",
      "url": "https://www.google.com/maps/place/%E4%BF%A1%E7%BE%A9%E7%89%99%E9%86%AB%E8%A8%BA%E6%89%80/data=!4m2!3m1!1s0x3442a983aaaaaaab:0xb6ea07978bcddf03",
      "place_id": "0x3442a983aaaaaaab:0xb6ea07978bcddf03",
      "description": "專業醫療服務，守護您的健康",
      "city": "臺北市",
      "category": "醫療",
      "lat": 25.0336374,
      "lng": 121.52862669999999
    },
    {
      "name": "陳文成博士紀念基金會",
      "url": "https://www.google.com/maps/place/%E9%99%B3%E6%96%87%E6%88%90%E5%8D%9A%E5%A3%AB%E7%B4%80%E5%BF%B5%E5%9F%BA%E9%87%91%E6%9C%83/data=!4m2!3m1!1s0x3442a987bb26491d:0xa10e338e296b637a",
      "place_id": "0x3442a987bb26491d:0xa10e338e296b637a",
      "description": "獨特選書品味的空間，愛書人的秘密基地",
      "city": "臺北市",
      "category": "其他",
      "lat": 25.0246233,
      "lng": 121.5350606
    },
    {
      "name": "野火法律事務所暨台灣公民人權聯盟",
      "url": "https://www.google.com/maps/place/%E9%87%8E%E7%81%AB%E6%B3%95%E5%BE%8B%E4%BA%8B%E5%8B%99%E6%89%80%E6%9A%A8%E5%8F%B0%E7%81%A3%E5%85%AC%E6%B0%91%E4%BA%BA%E6%AC%8A%E8%81%AF%E7%9B%9F/data=!4m2!3m1!1s0x3442ab7c100a48d9:0xf8194a63fc60dc69",
      "place_id": "0x3442ab7c100a48d9:0xf8194a63fc60dc69",
      "description": "生活中的好幫手，提供便利服務",
      "city": "臺北市",
      "category": "其他",
      "lat": 25.0335914,
      "lng": 121.5454609
    },
    {
      "name": "KLG 炸雞新竹巨城店",
      "url": "https://www.google.com/maps/place/KLG+%E7%82%B8%E9%9B%9E%E6%96%B0%E7%AB%B9%E5%B7%A8%E5%9F%8E%E5%BA%97/data=!4m2!3m1!1s0x346835dae25f6f07:0xac60e7b1a47451c8",
      "place_id": "0x346835dae25f6f07:0xac60e7b1a47451c8",
      "description": "用心烹調的美味料理，值得一訪",
      "city": "新竹市",
      "category": "購物",
      "lat": 24.8089601,
      "lng": 120.9781069
    },
    {
      "name": "香棲沙龍 Roost salon /芳療/按摩/免費停車/美食",
      "url": "https://www.google.com/maps/place/%E9%A6%99%E6%A3%B2%E6%B2%99%E9%BE%8D+Roost+salon+%2F%E8%8A%B3%E7%99%82%2F%E6%8C%89%E6%91%A9%2F%E5%85%8D%E8%B2%BB%E5%81%9C%E8%BB%8A%2F%E7%BE%8E%E9%A3%9F/data=!4m2!3m1!1s0x3468353cc959bfb3:0xed55301e4ce02d9",
      "place_id": "0x3468353cc959bfb3:0xed55301e4ce02d9",
      "description": "用心烹調的美味料理，值得一訪",
      "city": "新竹市",
      "category": "美食",
      "lat": 24.810108999999997,
      "lng": 120.9681844
    },
    {
      "name": "千甲商行",
      "url": "https://www.google.com/maps/place/%E5%8D%83%E7%94%B2%E5%95%86%E8%A1%8C/data=!4m2!3m1!1s0x3468367008da52b1:0xaddfbb8e06f784ff",
      "place_id": "0x3468367008da52b1:0xaddfbb8e06f784ff",
      "description": "生活中的好幫手，提供便利服務",
      "city": "新竹市",
      "category": "其他",
      "lat": 24.806658799999997,
      "lng": 120.9982292
    },
    {
      "name": "文利商店",
      "url": "https://www.google.com/maps/place/%E6%96%87%E5%88%A9%E5%95%86%E5%BA%97/data=!4m2!3m1!1s0x34683667a9cd49f3:0xbdd0a65b32c28283",
      "place_id": "0x34683667a9cd49f3:0xbdd0a65b32c28283",
      "description": "生活中的好幫手，提供便利服務",
      "city": "新竹市",
      "category": "購物",
      "lat": 24.807311000000002,
      "lng": 121.0083107
    },
    {
      "name": "貓畫室",
      "url": "https://www.google.com/maps/place/%E8%B2%93%E7%95%AB%E5%AE%A4/data=!4m2!3m1!1s0x3468359542a26f9d:0xaafb4cf61e5c566c",
      "place_id": "0x3468359542a26f9d:0xaafb4cf61e5c566c",
      "description": "獨特選書品味的空間，愛書人的秘密基地",
      "city": "新竹市",
      "category": "寵物",
      "lat": 24.803505299999998,
      "lng": 120.96329360000001
    },
    {
      "name": "愛麵子客家美食",
      "url": "https://www.google.com/maps/place/%E6%84%9B%E9%BA%B5%E5%AD%90%E5%AE%A2%E5%AE%B6%E7%BE%8E%E9%A3%9F/data=!4m2!3m1!1s0x346822360e7cc62b:0xc9f8ee5b4c812495",
      "place_id": "0x346822360e7cc62b:0xc9f8ee5b4c812495",
      "description": "用心烹調的美味料理，值得一訪",
      "city": "桃園市",
      "category": "美食",
      "lat": 24.958361299999996,
      "lng": 121.22317749999999
    },
    {
      "name": "南崁多加教會 - 充滿溫暖、最溫馨的教會",
      "url": "https://www.google.com/maps/place/%E5%8D%97%E5%B4%81%E5%A4%9A%E5%8A%A0%E6%95%99%E6%9C%83+-+%E5%85%85%E6%BB%BF%E6%BA%AB%E6%9A%96%E3%80%81%E6%9C%80%E6%BA%AB%E9%A6%A8%E7%9A%84%E6%95%99%E6%9C%83/data=!4m2!3m1!1s0x34681fdbbccb95fb:0xd16be700db6a32ba",
      "place_id": "0x34681fdbbccb95fb:0xd16be700db6a32ba",
      "description": "信仰團契的溫馨空間，心靈的歸屬",
      "city": "桃園市",
      "category": "其他",
      "lat": 25.0402427,
      "lng": 121.2928274
    },
    {
      "name": "上野屋日式料理",
      "url": "https://www.google.com/maps/place/%E4%B8%8A%E9%87%8E%E5%B1%8B%E6%97%A5%E5%BC%8F%E6%96%99%E7%90%86/data=!4m2!3m1!1s0x3442a7345276ab53:0x885dd652dcafcaba",
      "place_id": "0x3442a7345276ab53:0x885dd652dcafcaba",
      "description": "用心烹調的美味料理，值得一訪",
      "city": "桃園市",
      "category": "美食",
      "lat": 25.0573947,
      "lng": 121.3565271
    },
    {
      "name": "桃園市亞洲婚姻協會",
      "url": "https://www.google.com/maps/place/%E6%A1%83%E5%9C%92%E5%B8%82%E4%BA%9E%E6%B4%B2%E5%A9%9A%E5%A7%BB%E5%8D%94%E6%9C%83/data=!4m2!3m1!1s0x34681e4aa3a481dd:0xa63066a048164007",
      "place_id": "0x34681e4aa3a481dd:0xa63066a048164007",
      "description": "生活中的好幫手，提供便利服務",
      "city": "桃園市",
      "category": "其他",
      "lat": 25.0218899,
      "lng": 121.30960110000001
    },
    {
      "name": "❰ BUAN ❱ 布望小館",
      "url": "https://www.google.com/maps/place/%E2%9D%B0+BUAN+%E2%9D%B1+%E5%B8%83%E6%9C%9B%E5%B0%8F%E9%A4%A8/data=!4m2!3m1!1s0x3468d93a12fcd3b7:0xfd060802c536bfcb",
      "place_id": "0x3468d93a12fcd3b7:0xfd060802c536bfcb",
      "description": "用心烹調的美味料理，值得一訪",
      "city": "南投縣",
      "category": "其他",
      "lat": 23.968946400000004,
      "lng": 120.9736838
    },
    {
      "name": "黃兆侃內科小兒科診所",
      "url": "https://www.google.com/maps/place/%E9%BB%83%E5%85%86%E4%BE%83%E5%85%A7%E7%A7%91%E5%B0%8F%E5%85%92%E7%A7%91%E8%A8%BA%E6%89%80/data=!4m2!3m1!1s0x3468028729e396fb:0xd42059521dc25004",
      "place_id": "0x3468028729e396fb:0xd42059521dc25004",
      "description": "專業醫療服務，守護您的健康",
      "city": "新北市",
      "category": "醫療",
      "lat": 24.996087499999998,
      "lng": 121.48845769999998
    },
    {
      "name": "旅徒咖啡｜無訂位｜有點安靜｜手沖咖啡｜提拉米蘇",
      "url": "https://www.google.com/maps/place/%E6%97%85%E5%BE%92%E5%92%96%E5%95%A1%EF%BD%9C%E7%84%A1%E8%A8%82%E4%BD%8D%EF%BD%9C%E6%9C%89%E9%BB%9E%E5%AE%89%E9%9D%9C%EF%BD%9C%E6%89%8B%E6%B2%96%E5%92%96%E5%95%A1%EF%BD%9C%E6%8F%90%E6%8B%89%E7%B1%B3%E8%98%87/data=!4m2!3m1!1s0x3442a9a40ded4d2b:0xa6a5434e4bc125ff",
      "place_id": "0x3442a9a40ded4d2b:0xa6a5434e4bc125ff",
      "description": "用心沖煮的咖啡，舒適的品飲空間",
      "city": "臺北市",
      "category": "咖啡廳",
      "lat": 25.0547169,
      "lng": 121.53171990000001
    },
    {
      "name": "黑鯨咖啡館",
      "url": "https://www.google.com/maps/place/%E9%BB%91%E9%AF%A8%E5%92%96%E5%95%A1%E9%A4%A8/data=!4m2!3m1!1s0x34689fbe442c9815:0x50339d42ad27181",
      "place_id": "0x34689fbe442c9815:0x50339d42ad27181",
      "description": "用心沖煮的咖啡，舒適的品飲空間",
      "city": "花蓮縣",
      "category": "咖啡廳",
      "lat": 23.9791326,
      "lng": 121.6017476
    },
    {
      "name": "花蓮木瓜牛奶",
      "url": "https://www.google.com/maps/place/%E8%8A%B1%E8%93%AE%E6%9C%A8%E7%93%9C%E7%89%9B%E5%A5%B6/data=!4m2!3m1!1s0x34689fc02afabec5:0x4f8b7c9ebe207838",
      "place_id": "0x34689fc02afabec5:0x4f8b7c9ebe207838",
      "description": "用心烹調的美味料理，值得一訪",
      "city": "花蓮縣",
      "category": "藝文/工作室",
      "lat": 23.975895800000004,
      "lng": 121.60813350000001
    },
    {
      "name": "北非North Africa - 咖啡/法式吐司/點心（每週四店休）",
      "url": "https://www.google.com/maps/place/%E5%8C%97%E9%9D%9ENorth+Africa+-+%E5%92%96%E5%95%A1%2F%E6%B3%95%E5%BC%8F%E5%90%90%E5%8F%B8%2F%E9%BB%9E%E5%BF%83%EF%BC%88%E6%AF%8F%E9%80%B1%E5%9B%9B%E5%BA%97%E4%BC%91%EF%BC%89/data=!4m2!3m1!1s0x34689f64e285fb09:0x6a7b613498d688f2",
      "place_id": "0x34689f64e285fb09:0x6a7b613498d688f2",
      "description": "用心沖煮的咖啡，舒適的品飲空間",
      "city": "花蓮縣",
      "category": "咖啡廳",
      "lat": 23.982761399999998,
      "lng": 121.6040527
    },
    {
      "name": "南日咖啡 Namli",
      "url": "https://www.google.com/maps/place/%E5%8D%97%E6%97%A5%E5%92%96%E5%95%A1+Namli/data=!4m2!3m1!1s0x34689f00503afdf5:0x9edc9b9a2c36115c",
      "place_id": "0x34689f00503afdf5:0x9edc9b9a2c36115c",
      "description": "用心沖煮的咖啡，舒適的品飲空間",
      "city": "花蓮縣",
      "category": "咖啡廳",
      "lat": 23.975115,
      "lng": 121.60452319999999
    },
    {
      "name": "歐咖波 OLD COUPLE COFFEE",
      "url": "https://www.google.com/maps/place/%E6%AD%90%E5%92%96%E6%B3%A2+OLD+COUPLE+COFFEE/data=!4m2!3m1!1s0x34689f41fdedf139:0xa3ffc81962a759e5",
      "place_id": "0x34689f41fdedf139:0xa3ffc81962a759e5",
      "description": "用心沖煮的咖啡，舒適的品飲空間",
      "city": "花蓮縣",
      "category": "咖啡廳",
      "lat": 23.978503099999994,
      "lng": 121.6004773
    },
    {
      "name": "飯糰店 Rice Ball Store售完就收攤",
      "url": "https://www.google.com/maps/place/%E9%A3%AF%E7%B3%B0%E5%BA%97+Rice+Ball+Store%E5%94%AE%E5%AE%8C%E5%B0%B1%E6%94%B6%E6%94%A4/data=!4m2!3m1!1s0x34689f21f686515d:0x6a10eed7dc67a28d",
      "place_id": "0x34689f21f686515d:0x6a10eed7dc67a28d",
      "description": "用心烹調的美味料理，值得一訪",
      "city": "花蓮縣",
      "category": "美食",
      "lat": 23.9816979,
      "lng": 121.6091153
    },
    {
      "name": "stroll散步咖啡",
      "url": "https://www.google.com/maps/place/stroll%E6%95%A3%E6%AD%A5%E5%92%96%E5%95%A1/data=!4m2!3m1!1s0x34689fbe0f899549:0x7bb32a4f487247ff",
      "place_id": "0x34689fbe0f899549:0x7bb32a4f487247ff",
      "description": "用心沖煮的咖啡，舒適的品飲空間",
      "city": "花蓮縣",
      "category": "咖啡廳",
      "lat": 23.9751829,
      "lng": 121.60559439999999
    },
    {
      "name": "南島百合 Lily Of Island Eatery（搬遷至台東鹿野預計2025/7月重新開幕）",
      "url": "https://www.google.com/maps/place/%E5%8D%97%E5%B3%B6%E7%99%BE%E5%90%88+Lily+Of+Island+Eatery%EF%BC%88%E6%90%AC%E9%81%B7%E8%87%B3%E5%8F%B0%E6%9D%B1%E9%B9%BF%E9%87%8E%E9%A0%90%E8%A8%882025%2F7%E6%9C%88%E9%87%8D%E6%96%B0%E9%96%8B%E5%B9%95%EF%BC%89/data=!4m2!3m1!1s0x34689f0e66b1dae1:0xc787db8ffa076edf",
      "place_id": "0x34689f0e66b1dae1:0xc787db8ffa076edf",
      "description": "用心烹調的美味料理，值得一訪",
      "city": "花蓮縣",
      "category": "其他",
      "lat": 23.9740884,
      "lng": 121.6088941
    },
    {
      "name": "阿姑的店",
      "url": "https://www.google.com/maps/place/%E9%98%BF%E5%A7%91%E7%9A%84%E5%BA%97/data=!4m2!3m1!1s0x34689f71c23c2d3b:0x1b5a3c4ff24f18d2",
      "place_id": "0x34689f71c23c2d3b:0x1b5a3c4ff24f18d2",
      "description": "獨特的存在，值得親自探索的特色空間",
      "city": "花蓮縣",
      "category": "購物",
      "lat": 23.977202000000002,
      "lng": 121.5722425
    },
    {
      "name": "靜樹湖民宿",
      "url": "https://www.google.com/maps/place/%E9%9D%9C%E6%A8%B9%E6%B9%96%E6%B0%91%E5%AE%BF/data=!4m2!3m1!1s0x3468a53f56d682a7:0xe23366a1bf61cf",
      "place_id": "0x3468a53f56d682a7:0xe23366a1bf61cf",
      "description": "舒適住宿空間，旅途中的溫馨歸處",
      "city": "花蓮縣",
      "category": "住宿",
      "lat": 23.8425536,
      "lng": 121.4806761
    },
    {
      "name": "大禮百合休閒農莊/大禮百合屋赫赫斯民宿/大禮百合屋樂竹閣民宿",
      "url": "https://www.google.com/maps/place/%E5%A4%A7%E7%A6%AE%E7%99%BE%E5%90%88%E4%BC%91%E9%96%92%E8%BE%B2%E8%8E%8A%2F%E5%A4%A7%E7%A6%AE%E7%99%BE%E5%90%88%E5%B1%8B%E8%B5%AB%E8%B5%AB%E6%96%AF%E6%B0%91%E5%AE%BF%2F%E5%A4%A7%E7%A6%AE%E7%99%BE%E5%90%88%E5%B1%8B%E6%A8%82%E7%AB%B9%E9%96%A3%E6%B0%91%E5%AE%BF/data=!4m2!3m1!1s0x34662950b4634a4f:0x89256db309758978",
      "place_id": "0x34662950b4634a4f:0x89256db309758978",
      "description": "舒適住宿空間，旅途中的溫馨歸處",
      "city": "花蓮縣",
      "category": "住宿",
      "lat": 24.168396099999995,
      "lng": 121.62963459999999
    },
    {
      "name": "多羅滿賞鯨公司/ 花蓮賞鯨/ 花蓮港/ 鯨過多羅滿地方文化館 /友善賞鯨",
      "url": "https://www.google.com/maps/place/%E5%A4%9A%E7%BE%85%E6%BB%BF%E8%B3%9E%E9%AF%A8%E5%85%AC%E5%8F%B8%2F+%E8%8A%B1%E8%93%AE%E8%B3%9E%E9%AF%A8%2F+%E8%8A%B1%E8%93%AE%E6%B8%AF%2F+%E9%AF%A8%E9%81%8E%E5%A4%9A%E7%BE%85%E6%BB%BF%E5%9C%B0%E6%96%B9%E6%96%87%E5%8C%96%E9%A4%A8+%2F%E5%8F%8B%E5%96%84%E8%B3%9E%E9%AF%A8/data=!4m2!3m1!1s0x34689fd0af3c9463:0x1bdf65b8db83fba4",
      "place_id": "0x34689fd0af3c9463:0x1bdf65b8db83fba4",
      "description": "獨特選書品味的空間，愛書人的秘密基地",
      "city": "花蓮縣",
      "category": "藝文/工作室",
      "lat": 24.0061634,
      "lng": 121.6389742
    },
    {
      "name": "K Show食宿",
      "url": "https://www.google.com/maps/place/K+Show%E9%A3%9F%E5%AE%BF/data=!4m2!3m1!1s0x34689fbfef7048a7:0xf0d86f9b1256614f",
      "place_id": "0x34689fbfef7048a7:0xf0d86f9b1256614f",
      "description": "用心烹調的美味料理，值得一訪",
      "city": "花蓮縣",
      "category": "美食",
      "lat": 23.9926969,
      "lng": 121.62817030000001
    },
    {
      "name": "時也 eatime.is｜ 輕食。咖啡。雪花冰(店休詳見臉書IG)",
      "url": "https://www.google.com/maps/place/%E6%99%82%E4%B9%9F+eatime.is%EF%BD%9C+%E8%BC%95%E9%A3%9F%E3%80%82%E5%92%96%E5%95%A1%E3%80%82%E9%9B%AA%E8%8A%B1%E5%86%B0%28%E5%BA%97%E4%BC%91%E8%A9%B3%E8%A6%8B%E8%87%89%E6%9B%B8IG%29/data=!4m2!3m1!1s0x346821d91927caf1:0x9dddeede209751d2",
      "place_id": "0x346821d91927caf1:0x9dddeede209751d2",
      "description": "用心沖煮的咖啡，舒適的品飲空間",
      "city": "桃園市",
      "category": "咖啡廳",
      "lat": 24.9790632,
      "lng": 121.25173849999999
    },
    {
      "name": "小獸書屋",
      "url": "https://www.google.com/maps/place/%E5%B0%8F%E7%8D%B8%E6%9B%B8%E5%B1%8B/data=!4m2!3m1!1s0x345d4fe129f42693:0xf884444a4790ce97",
      "place_id": "0x345d4fe129f42693:0xf884444a4790ce97",
      "description": "獨特選書品味的空間，愛書人的秘密基地",
      "city": "基隆市",
      "category": "書店",
      "lat": 25.1279792,
      "lng": 121.74398729999999
    },
    {
      "name": "以馬內利早餐咖啡",
      "url": "https://www.google.com/maps/place/%E4%BB%A5%E9%A6%AC%E5%85%A7%E5%88%A9%E6%97%A9%E9%A4%90%E5%92%96%E5%95%A1/data=!4m2!3m1!1s0x3468b2b778372ce1:0x1805ad626a127dde",
      "place_id": "0x3468b2b778372ce1:0x1805ad626a127dde",
      "description": "用心沖煮的咖啡，舒適的品飲空間",
      "city": "花蓮縣",
      "category": "咖啡廳",
      "lat": 23.6657437,
      "lng": 121.42566880000001
    },
    {
      "name": "SabiSabi Coffee&Sweets 花蓮老宅神級肉桂捲",
      "url": "https://www.google.com/maps/place/SabiSabi+Coffee%26Sweets+%E8%8A%B1%E8%93%AE%E8%80%81%E5%AE%85%E7%A5%9E%E7%B4%9A%E8%82%89%E6%A1%82%E6%8D%B2/data=!4m2!3m1!1s0x34689f93be403ff7:0x9b7db0f64c04ed94",
      "place_id": "0x34689f93be403ff7:0x9b7db0f64c04ed94",
      "description": "用心沖煮的咖啡，舒適的品飲空間",
      "city": "花蓮縣",
      "category": "咖啡廳",
      "lat": 23.986234,
      "lng": 121.62328980000001
    },
    {
      "name": "木容MURON｜下午茶｜咖啡｜花蓮美食",
      "url": "https://www.google.com/maps/place/%E6%9C%A8%E5%AE%B9MURON%EF%BD%9C%E4%B8%8B%E5%8D%88%E8%8C%B6%EF%BD%9C%E5%92%96%E5%95%A1%EF%BD%9C%E8%8A%B1%E8%93%AE%E7%BE%8E%E9%A3%9F/data=!4m2!3m1!1s0x34689f747c585949:0xbe9a4971e5e6f381",
      "place_id": "0x34689f747c585949:0xbe9a4971e5e6f381",
      "description": "精選茶飲專賣，品味台灣好茶的香醇",
      "city": "花蓮縣",
      "category": "咖啡廳",
      "lat": 23.978907600000003,
      "lng": 121.60600360000001
    },
    {
      "name": "Sapientia Cafe 夏比安咖啡（週間下午可來電預約）",
      "url": "https://www.google.com/maps/place/Sapientia+Cafe+%E5%A4%8F%E6%AF%94%E5%AE%89%E5%92%96%E5%95%A1%EF%BC%88%E9%80%B1%E9%96%93%E4%B8%8B%E5%8D%88%E5%8F%AF%E4%BE%86%E9%9B%BB%E9%A0%90%E7%B4%84%EF%BC%89/data=!4m2!3m1!1s0x346f4d559656f78f:0x5890797632946589",
      "place_id": "0x346f4d559656f78f:0x5890797632946589",
      "description": "用心沖煮的咖啡，舒適的品飲空間",
      "city": "花蓮縣",
      "category": "咖啡廳",
      "lat": 23.634943800000002,
      "lng": 121.42214369999999
    },
    {
      "name": "Sapientia Guest House 夏比安民宿",
      "url": "https://www.google.com/maps/place/Sapientia+Guest+House+%E5%A4%8F%E6%AF%94%E5%AE%89%E6%B0%91%E5%AE%BF/data=!4m2!3m1!1s0x346f4d1b11acbbc5:0x750b373403e8f0f0",
      "place_id": "0x346f4d1b11acbbc5:0x750b373403e8f0f0",
      "description": "舒適住宿空間，旅途中的溫馨歸處",
      "city": "花蓮縣",
      "category": "住宿",
      "lat": 23.6349134,
      "lng": 121.42213360000001
    },
    {
      "name": "斯土有情",
      "url": "https://www.google.com/maps/place/%E6%96%AF%E5%9C%9F%E6%9C%89%E6%83%85/data=!4m2!3m1!1s0x3466298b246905f1:0x5415171ce87d938d",
      "place_id": "0x3466298b246905f1:0x5415171ce87d938d",
      "description": "獨特的存在，值得親自探索的特色空間",
      "city": "花蓮縣",
      "category": "其他",
      "lat": 24.1260135,
      "lng": 121.6522386
    },
    {
      "name": "斯土有情柴燒窯",
      "url": "https://www.google.com/maps/place/%E6%96%AF%E5%9C%9F%E6%9C%89%E6%83%85%E6%9F%B4%E7%87%92%E7%AA%AF/data=!4m2!3m1!1s0x34689d5ca39a9c51:0x5b3553d817714656",
      "place_id": "0x34689d5ca39a9c51:0x5b3553d817714656",
      "description": "用心烹調的美味料理，值得一訪",
      "city": "花蓮縣",
      "category": "其他",
      "lat": 24.105885500000003,
      "lng": 121.61802200000001
    },
    {
      "name": "吧杉 BAR SAN",
      "url": "https://www.google.com/maps/place/%E5%90%A7%E6%9D%89+BAR+SAN/data=!4m2!3m1!1s0x34689fa5aac8a2e5:0x6baf85b7906b79a",
      "place_id": "0x34689fa5aac8a2e5:0x6baf85b7906b79a",
      "description": "特色餐酒館，美食與美酒的饗宴",
      "city": "花蓮縣",
      "category": "酒吧",
      "lat": 23.9810913,
      "lng": 121.6005586
    },
    {
      "name": "不尽咖啡炙焙所 |預約制|",
      "url": "https://www.google.com/maps/place/%E4%B8%8D%E5%B0%BD%E5%92%96%E5%95%A1%E7%82%99%E7%84%99%E6%89%80+%7C%E9%A0%90%E7%B4%84%E5%88%B6%7C/data=!4m2!3m1!1s0x3468a18be652d04b:0x4ee3b0a8cac0c6",
      "place_id": "0x3468a18be652d04b:0x4ee3b0a8cac0c6",
      "description": "用心沖煮的咖啡，舒適的品飲空間",
      "city": "花蓮縣",
      "category": "咖啡廳",
      "lat": 23.945897100000003,
      "lng": 121.54536499999999
    },
    {
      "name": "肉肉餐桌",
      "url": "https://www.google.com/maps/place/%E8%82%89%E8%82%89%E9%A4%90%E6%A1%8C/data=!4m2!3m1!1s0x34689f956b3b47d9:0x30e0a235e94ffb2e",
      "place_id": "0x34689f956b3b47d9:0x30e0a235e94ffb2e",
      "description": "用心烹調的美味料理，值得一訪",
      "city": "花蓮縣",
      "category": "美食",
      "lat": 23.97552,
      "lng": 121.6038429
    },
    {
      "name": "Ginsman Bar 琴詩酒吧",
      "url": "https://www.google.com/maps/place/Ginsman+Bar+%E7%90%B4%E8%A9%A9%E9%85%92%E5%90%A7/data=!4m2!3m1!1s0x34689fc0908e317d:0xfceb68049a94416c",
      "place_id": "0x34689fc0908e317d:0xfceb68049a94416c",
      "description": "特色餐酒館，美食與美酒的饗宴",
      "city": "花蓮縣",
      "category": "酒吧",
      "lat": 23.9797911,
      "lng": 121.6062597
    },
    {
      "name": "花蓮後站機車出租店全面特價囉！",
      "url": "https://www.google.com/maps/place/%E8%8A%B1%E8%93%AE%E5%BE%8C%E7%AB%99%E6%A9%9F%E8%BB%8A%E5%87%BA%E7%A7%9F%E5%BA%97%E5%85%A8%E9%9D%A2%E7%89%B9%E5%83%B9%E5%9B%89%EF%BC%81/data=!4m2!3m1!1s0x34689fb389f2a0ed:0xb2fbc5ff2957cd48",
      "place_id": "0x34689fb389f2a0ed:0xb2fbc5ff2957cd48",
      "description": "生活中的好幫手，提供便利服務",
      "city": "花蓮縣",
      "category": "藝文/工作室",
      "lat": 23.994628799999997,
      "lng": 121.59915629999998
    },
    {
      "name": "歪歪歪甜點 太魯閣新城店-YYY Dessert -コーヒ—-커피숍",
      "url": "https://www.google.com/maps/place/%E6%AD%AA%E6%AD%AA%E6%AD%AA%E7%94%9C%E9%BB%9E+%E5%A4%AA%E9%AD%AF%E9%96%A3%E6%96%B0%E5%9F%8E%E5%BA%97-YYY+Dessert+-%E3%82%B3%E3%83%BC%E3%83%92%E2%80%94-%EC%BB%A4%ED%94%BC%EC%88%8D/data=!4m2!3m1!1s0x3466296103a43459:0xd73f4eb4e66e6656",
      "place_id": "0x3466296103a43459:0xd73f4eb4e66e6656",
      "description": "精心製作的甜點，療癒味蕾好去處",
      "city": "花蓮縣",
      "category": "美食",
      "lat": 24.116698999999997,
      "lng": 121.63856969999999
    },
    {
      "name": "歪歪歪甜點 yyy dessert (花蓮地表最強蛋黃酥、花蓮美食、花蓮下午茶、花蓮必吃、花蓮甜點、花蓮伴手禮）",
      "url": "https://www.google.com/maps/place/%E6%AD%AA%E6%AD%AA%E6%AD%AA%E7%94%9C%E9%BB%9E+yyy+dessert+%28%E8%8A%B1%E8%93%AE%E5%9C%B0%E8%A1%A8%E6%9C%80%E5%BC%B7%E8%9B%8B%E9%BB%83%E9%85%A5%E3%80%81%E8%8A%B1%E8%93%AE%E7%BE%8E%E9%A3%9F%E3%80%81%E8%8A%B1%E8%93%AE%E4%B8%8B%E5%8D%88%E8%8C%B6%E3%80%81%E8%8A%B1%E8%93%AE%E5%BF%85%E5%90%83%E3%80%81%E8%8A%B1%E8%93%AE%E7%94%9C%E9%BB%9E%E3%80%81%E8%8A%B1%E8%93%AE%E4%BC%B4%E6%89%8B%E7%A6%AE%EF%BC%89/data=!4m2!3m1!1s0x34689f947707e2ff:0xf86cfecd001ab949",
      "place_id": "0x34689f947707e2ff:0xf86cfecd001ab949",
      "description": "精選茶飲專賣，品味台灣好茶的香醇",
      "city": "花蓮縣",
      "category": "飲料店",
      "lat": 23.9757224,
      "lng": 121.60799779999999
    },
    {
      "name": "龍哥斯特",
      "url": "https://www.google.com/maps/place/%E9%BE%8D%E5%93%A5%E6%96%AF%E7%89%B9/data=!4m2!3m1!1s0x34689fa6a57022a9:0x3ddc63c13c30cf10",
      "place_id": "0x34689fa6a57022a9:0x3ddc63c13c30cf10",
      "description": "獨特的存在，值得親自探索的特色空間",
      "city": "花蓮縣",
      "category": "其他",
      "lat": 23.986476999999997,
      "lng": 121.587786
    },
    {
      "name": "十號酒窖No.10 Wine Cellar（紅白葡萄酒專營）",
      "url": "https://www.google.com/maps/place/%E5%8D%81%E8%99%9F%E9%85%92%E7%AA%96No.10+Wine+Cellar%EF%BC%88%E7%B4%85%E7%99%BD%E8%91%A1%E8%90%84%E9%85%92%E5%B0%88%E7%87%9F%EF%BC%89/data=!4m2!3m1!1s0x3469316a47d2a099:0xf0152e34d55201ad",
      "place_id": "0x3469316a47d2a099:0xf0152e34d55201ad",
      "description": "特色餐酒館，美食與美酒的饗宴",
      "city": "南投縣",
      "category": "酒吧",
      "lat": 23.976979999999998,
      "lng": 120.68520910000001
    }
  ]
}
