{
  "title": "台派地圖",
  "count": 2893,
  "extracted_at": "2025-12-28T12:10:22.815Z",
  "places": [
    {
      "name": "開飯川食堂 左營店",
      "url": "https://www.google.com/maps/search/?api=1&query=開飯川食堂",
      "place_id": "",
      "description": "位於高雄左營新光三越的四川料理，交通便利，川菜道地。",
      "lat": 22.6876494,
      "lng": 120.3091962,
      "category": "美食",
      "city": "高雄市",
      "popular_product": "流口水雞、麻婆燒豆腐"
    },
    {
      "name": "開飯川食堂 花蓮遠百店",
      "url": "https://www.google.com/maps/search/?api=1&query=開飯川食堂",
      "place_id": "",
      "description": "位於花蓮遠東百貨的四川料理，是當地品嚐川菜的好去處。",
      "lat": 23.9781431,
      "lng": 121.5996077,
      "category": "美食",
      "city": "花蓮縣",
      "popular_product": "流口水雞、麻婆燒豆腐"
    },
    {
      "name": "開飯川食堂 中壢店",
      "url": "https://www.google.com/maps/search/?api=1&query=開飯川食堂",
      "place_id": "",
      "description": "位於桃園中壢SOGO的四川料理，提供香麻帶勁的美味川菜。",
      "lat": 24.9626957,
      "lng": 121.2238507,
      "category": "美食",
      "city": "桃園市",
      "popular_product": "流口水雞、麻婆燒豆腐"
    },
    {
      "name": "開飯川食堂 夢時代店",
      "url": "https://www.google.com/maps/search/?api=1&query=開飯川食堂",
      "place_id": "",
      "description": "位於高雄夢時代購物中心的四川料理，環境寬敞舒適。",
      "lat": 22.5953474,
      "lng": 120.3079342,
      "category": "美食",
      "city": "高雄市",
      "popular_product": "流口水雞、麻婆燒豆腐"
    },
    {
      "name": "開飯川食堂 義享店",
      "url": "https://www.google.com/maps/search/?api=1&query=開飯川食堂",
      "place_id": "",
      "description": "位於高雄義享天地的四川料理，結合時尚購物與美食體驗。",
      "lat": 22.6557138,
      "lng": 120.3062344,
      "category": "美食",
      "city": "高雄市",
      "popular_product": "流口水雞、麻婆燒豆腐"
    },
    {
      "name": "開飯川食堂 西門店",
      "url": "https://www.google.com/maps/search/?api=1&query=開飯川食堂",
      "place_id": "",
      "description": "位於台南新光三越西門店的四川料理，提供道地川味。",
      "lat": 22.9872693,
      "lng": 120.1979129,
      "category": "美食",
      "city": "台南市",
      "popular_product": "流口水雞、麻婆燒豆腐"
    },
    {
      "name": "開飯川食堂 宜蘭新月店",
      "url": "https://www.google.com/maps/search/?api=1&query=開飯川食堂",
      "place_id": "",
      "description": "開飯川食堂 宜蘭新月店是位於宜蘭縣的四川料理",
      "lat": 24.7540596,
      "lng": 121.7505349,
      "category": "美食",
      "city": "宜蘭縣",
      "popular_product": ""
    },
    {
      "name": "開飯川食堂 桃園店",
      "url": "https://www.google.com/maps/search/?api=1&query=開飯川食堂",
      "place_id": "",
      "description": "開飯川食堂 桃園店是位於桃園市的四川料理",
      "lat": 24.9897388,
      "lng": 121.3137948,
      "category": "美食",
      "city": "桃園市",
      "popular_product": ""
    },
    {
      "name": "開飯川食堂 竹北遠百店",
      "url": "https://www.google.com/maps/search/?api=1&query=開飯川食堂",
      "place_id": "",
      "description": "位於新竹竹北遠東百貨的四川料理，提供辛香開胃的川菜盛宴。",
      "lat": 24.8221913,
      "lng": 121.023372,
      "category": "美食",
      "city": "新竹縣",
      "popular_product": "流口水雞、麻婆燒豆腐"
    },
    {
      "name": "開飯川食堂 嘉義耐斯店",
      "url": "https://www.google.com/maps/search/?api=1&query=開飯川食堂",
      "place_id": "",
      "description": "位於嘉義耐斯廣場的四川料理，是家庭聚餐的好選擇。",
      "lat": 23.4965197,
      "lng": 120.4525821,
      "category": "美食",
      "city": "嘉義市",
      "popular_product": "流口水雞、麻婆燒豆腐"
    },
    {
      "name": "開飯川食堂 新竹巨城店",
      "url": "https://www.google.com/maps/search/?api=1&query=開飯川食堂",
      "place_id": "",
      "description": "位於新竹巨城購物中心的四川料理，環境舒適，川菜道地。",
      "lat": 24.8094861,
      "lng": 120.974721,
      "category": "美食",
      "city": "新竹市",
      "popular_product": "流口水雞、麻婆燒豆腐"
    },
    {
      "name": "純潔｜chun jie studio |（店休請看專頁公告）",
      "url": "https://www.google.com/maps/search/?api=1&query=純潔工作室+台南",
      "place_id": "",
      "description": "位於台南市區的隱密老宅咖啡廳，提供寧靜的閱讀空間與精緻甜點。",
      "lat": 23.0003425,
      "lng": 120.2041809,
      "category": "咖啡廳",
      "city": "台南市",
      "popular_product": "拿鐵、提拉米蘇、焦糖脆脆伯爵戚風"
    },
    {
      "name": "阿振肉包 振味珍",
      "url": "https://www.google.com/maps/search/?api=1&query=阿振肉包+彰化鹿港",
      "place_id": "",
      "description": "位於彰化鹿港的百年老店，以口感紮實、內餡豐富的肉包與饅頭聞名。",
      "lat": 24.0520697,
      "lng": 120.4362256,
      "category": "美食",
      "city": "彰化縣",
      "popular_product": "原味肉包、翡翠肉包、牛奶饅頭"
    },
    {
      "name": "LALA Kitchen 新竹科園店",
      "url": "https://www.google.com/maps/search/?api=1&query=LALA+Kitchen",
      "place_id": "",
      "description": "位於新竹科學園區的美式餐廳，提供道地的美國南方紐奧良料理與舒適的工業風用餐環境。",
      "lat": 24.7774515,
      "lng": 121.0249286,
      "category": "美食",
      "city": "新竹市",
      "popular_product": "楓糖鬆餅炸雞、紐奧良海鮮飯、招牌肋眼牛排"
    },
    {
      "name": "LALA Kitchen 交大店",
      "url": "https://www.google.com/maps/search/?api=1&query=LALA+Kitchen",
      "place_id": "",
      "description": "位於新竹交通大學校園內的美式餐廳，環境優美，深受學生與家庭喜愛。",
      "lat": 24.7862836,
      "lng": 120.9996931,
      "category": "美食",
      "city": "新竹市",
      "popular_product": "楓糖鬆餅炸雞、紐奧良海鮮飯"
    },
    {
      "name": "LALA Kitchen 交大店",
      "url": "https://www.google.com/maps/search/?api=1&query=LALA+Kitchen",
      "place_id": "",
      "description": "LALA Kitchen 交大店是位於新竹市的現代美式料理",
      "lat": 24.7862836,
      "lng": 120.9996931,
      "category": "美食",
      "city": "新竹市",
      "popular_product": ""
    },
    {
      "name": "饗泰多 Siam More 泰式風格餐廳 天母店",
      "url": "https://www.google.com/maps/search/?api=1&query=饗泰多",
      "place_id": "",
      "description": "位於台北天母的泰式料理餐廳，匯集泰國各區特色美味，環境時尚舒適。",
      "lat": 25.1118523,
      "lng": 121.5314695,
      "category": "美食",
      "city": "台北市",
      "popular_product": "冠軍月亮蝦餅、黃咖哩軟殼蟹、炭烤瀑布牛"
    },
    {
      "name": "饗泰多 SIAM MORE 泰式風格餐廳 微風松高店",
      "url": "https://www.google.com/maps/search/?api=1&query=饗泰多",
      "place_id": "",
      "description": "位於台北信義區微風松高的泰式餐廳，提供多樣化的泰式經典名菜。",
      "lat": 25.036089,
      "lng": 121.567423,
      "category": "美食",
      "city": "台北市",
      "popular_product": "冠軍月亮蝦餅、黃咖哩軟殼蟹、清蒸檸檬魚"
    },
    {
      "name": "饗泰多 SIAM MORE 泰式風格餐廳 新莊宏匯店",
      "url": "https://www.google.com/maps/search/?api=1&query=饗泰多",
      "place_id": "",
      "description": "位於新莊宏匯廣場的泰式餐廳，適合家庭聚餐，提供道地泰式美味。",
      "lat": 24.3269785,
      "lng": 120.702336,
      "category": "美食",
      "city": "新北市",
      "popular_product": "冠軍月亮蝦餅、黃咖哩軟殼蟹、炭烤瀑布牛"
    },
    {
      "name": "饗泰多泰式風格餐廳 基隆店",
      "url": "https://www.google.com/maps/search/?api=1&query=饗泰多",
      "place_id": "",
      "description": "位於基隆的泰式餐廳，提供新鮮海鮮與泰式料理的完美結合。",
      "lat": 25.1336736,
      "lng": 121.7445699,
      "category": "美食",
      "city": "基隆市",
      "popular_product": "冠軍月亮蝦餅、黃咖哩軟殼蟹、清蒸檸檬魚"
    },
    {
      "name": "開飯川食堂 文心店",
      "url": "https://www.google.com/maps/search/?api=1&query=開飯川食堂",
      "place_id": "",
      "description": "位於台中南屯區文心秀泰的四川料理，提供辛香開胃的川菜盛宴。",
      "lat": 24.1297588,
      "lng": 120.645765,
      "category": "美食",
      "city": "台中市",
      "popular_product": "流口水雞、麻婆燒豆腐"
    },
    {
      "name": "開飯川食堂 中友店",
      "url": "https://www.google.com/maps/search/?api=1&query=開飯川食堂",
      "place_id": "",
      "description": "位於台中中友百貨的四川料理，環境寬敞，適合各式聚餐。",
      "lat": 24.1522437,
      "lng": 120.6848058,
      "category": "美食",
      "city": "台中市",
      "popular_product": "流口水雞、麻婆燒豆腐"
    },
    {
      "name": "開飯川食堂 台中大遠百店",
      "url": "https://www.google.com/maps/search/?api=1&query=開飯川食堂",
      "place_id": "",
      "description": "位於台中大遠百的四川料理，提供道地川味，逛街用餐首選。",
      "lat": 24.1637002,
      "lng": 120.6446167,
      "category": "美食",
      "city": "台中市",
      "popular_product": "流口水雞、麻婆燒豆腐"
    },
    {
      "name": "開飯川食堂 環球A19店 5F",
      "url": "https://www.google.com/maps/search/?api=1&query=開飯川食堂",
      "place_id": "",
      "description": "位於桃園青埔環球購物中心的四川料理，看球賽前後的聚餐好去處。",
      "lat": 25.0019989,
      "lng": 121.2024647,
      "category": "美食",
      "city": "桃園市",
      "popular_product": "流口水雞、麻婆燒豆腐"
    },
    {
      "name": "開飯川食堂 竹北光明店",
      "url": "https://www.google.com/maps/search/?api=1&query=開飯川食堂",
      "place_id": "",
      "description": "位於竹北光明商圈的四川料理，提供香麻帶勁的經典川菜。",
      "lat": 24.8306265,
      "lng": 121.0147889,
      "category": "美食",
      "city": "新竹縣",
      "popular_product": "流口水雞、麻婆燒豆腐"
    },
    {
      "name": "開飯川食堂 台中麗寶店",
      "url": "https://www.google.com/maps/search/?api=1&query=開飯川食堂",
      "place_id": "",
      "description": "位於台中麗寶Outlet的四川料理，購物休閒之餘享受美味川菜。",
      "lat": 24.3271251,
      "lng": 120.7023705,
      "category": "美食",
      "city": "台中市",
      "popular_product": "流口水雞、麻婆燒豆腐"
    },
    {
      "name": "開飯川食堂 文心店",
      "url": "https://www.google.com/maps/search/?api=1&query=開飯川食堂",
      "place_id": "",
      "description": "開飯川食堂 文心店是位於台中市的四川料理",
      "lat": 24.1297588,
      "lng": 120.645765,
      "category": "美食",
      "city": "台中市",
      "popular_product": ""
    },
    {
      "name": "開飯川食堂 天母店",
      "url": "https://www.google.com/maps/search/?api=1&query=開飯川食堂",
      "place_id": "",
      "description": "位於台北天母的四川料理，提供辛香開胃的川菜盛宴，家庭聚餐首選。",
      "lat": 25.111857,
      "lng": 121.531367,
      "category": "美食",
      "city": "台北市",
      "popular_product": "流口水雞、麻婆燒豆腐"
    },
    {
      "name": "蘭嶼旅人·Rover",
      "url": "",
      "place_id": "",
      "description": "位於蘭嶼的知名海景背包客棧與酒吧，擁有絕佳視野，氣氛輕鬆悠閒。",
      "lat": 22.0435616,
      "lng": 121.548418,
      "category": "美食",
      "city": "台東縣",
      "popular_product": "海景調酒、背包客棧"
    },
    {
      "name": "小恐龍阿圈與鼠妹妹的寄宿窩（鼠籠販售/倉鼠寄宿）",
      "url": "",
      "place_id": "",
      "description": "位於高雄大社的倉鼠寄宿與各種客製化鼠籠改裝販售專門店。",
      "lat": 22.7524065,
      "lng": 120.3410072,
      "category": "寵物",
      "city": "高雄市",
      "popular_product": "倉鼠寄宿、客製化鼠籠、整理箱改造"
    },
    {
      "name": "H500 Cafe",
      "url": "https://www.google.com/maps/search/?api=1&query=H500+Cafe+台中豐原",
      "place_id": "",
      "description": "位於台中豐原山區的景觀咖啡廳，提供優質咖啡與美麗的山景視野。",
      "lat": 24.2530319,
      "lng": 120.7627507,
      "category": "咖啡廳",
      "city": "台中市",
      "popular_product": "手沖咖啡、景觀下午茶"
    },
    {
      "name": "KYMCO 光陽機車 鉷泰機車行",
      "url": "https://www.google.com/maps/search/?api=1&query=鉷泰機車行+板橋",
      "place_id": "",
      "description": "位於新北市板橋區的光陽機車經銷商，提供機車買賣與維修保養服務。",
      "lat": 25.0116387,
      "lng": 121.452374,
      "category": "購物",
      "city": "新北市",
      "popular_product": "機車銷售、機車維修、定期保養"
    },
    {
      "name": "饗泰多泰式風格餐廳 永和比漾店",
      "url": "https://www.google.com/maps/search/?api=1&query=饗泰多",
      "place_id": "",
      "description": "位於永和比漾廣場的泰式餐廳，適合聚餐，提供道地酸辣泰式料理。",
      "lat": 25.0074958,
      "lng": 121.5071105,
      "category": "美食",
      "city": "新北市",
      "popular_product": "冠軍月亮蝦餅、黃咖哩軟殼蟹、清蒸檸檬魚"
    },
    {
      "name": "開飯川食堂 京站店",
      "url": "https://www.google.com/maps/search/?api=1&query=開飯川食堂",
      "place_id": "",
      "description": "位於台北京站時尚廣場的四川料理，交通便利，適合聚餐。",
      "lat": 25.049308,
      "lng": 121.5171935,
      "category": "美食",
      "city": "台北市",
      "popular_product": "流口水雞、麻婆燒豆腐"
    },
    {
      "name": "開飯川食堂 市府店",
      "url": "https://www.google.com/maps/place/%E9%96%8B%E9%A3%AF%E5%B7%9D%E9%A3%9F%E5%A0%82+%E5%B8%82%E5%BA%9C%E5%BA%97/data=!4m2!3m1!1s0x3442abb95faee141:0xc1d5f226fef09fdb",
      "place_id": "0x3442abb95faee141:0xc1d5f226fef09fdb",
      "description": "位於台北市府轉運站的四川料理，提供多樣化的辛香川菜選擇。",
      "lat": 25.0406227,
      "lng": 121.5654586,
      "category": "美食",
      "city": "台北市",
      "popular_product": "流口水雞、麻婆燒豆腐"
    },
    {
      "name": "開飯川食堂 敦化店",
      "url": "https://www.google.com/maps/search/?api=1&query=開飯川食堂",
      "place_id": "",
      "description": "位於台北敦化SOGO的四川料理，環境舒適，提供精緻的川味體驗。",
      "lat": 25.0400562,
      "lng": 121.5483169,
      "category": "美食",
      "city": "台北市",
      "popular_product": "流口水雞、麻婆燒豆腐"
    },
    {
      "name": "保壽藥房",
      "url": "https://www.google.com/maps/search/?api=1&query=保壽藥房+桃園",
      "place_id": "",
      "description": "位於桃園市區的老字號藥房，以提供轉骨湯藥方與優質中藥材聞名。",
      "lat": 24.9972748,
      "lng": 121.3102152,
      "category": "醫療",
      "city": "桃園市",
      "popular_product": "轉骨湯、中藥材調劑"
    },
    {
      "name": "Bar Mirage | 海市蜃樓",
      "url": "https://www.google.com/maps/search/?api=1&query=Bar+Mirage+Tainan",
      "place_id": "",
      "description": "位於台南市區的露營風酒吧，提供創意調酒與美味餐點，氣氛放鬆。",
      "lat": 22.9937533,
      "lng": 120.1963607,
      "category": "酒吧",
      "city": "台南市",
      "popular_product": "鹹酥雞拼盤、巴斯克流心蛋糕、創意調酒"
    },
    {
      "name": "海人之島潛水俱樂部 OceanKind Dive Club｜SDI TDI 國際水肺潛水訓練中心 · 休閒潛水 · 技術潛水 · 側掛潛水",
      "url": "https://www.google.com/maps/search/?api=1&query=OceanKind+Dive+Club+Taipei",
      "place_id": "",
      "description": "位於台北的專業潛水訓練中心，推廣各類潛水活動與教學。",
      "lat": 25.0448398,
      "lng": 121.5742572,
      "category": "其他",
      "city": "台北市",
      "popular_product": "水肺潛水教學、潛水旅遊、裝備銷售"
    },
    {
      "name": "夏覓Charmé de Shao",
      "url": "",
      "place_id": "",
      "description": "夏覓Charmé de Shao是位於台中市的服裝和布料批發商",
      "lat": 24.1762234,
      "lng": 120.6492757,
      "category": "其他",
      "city": "台中市",
      "popular_product": ""
    },
    {
      "name": "Meat Up 覓晌 台北西門店｜早午餐｜義大利麵｜舒芙蕾｜寵物友善",
      "url": "https://www.google.com/maps/search/?api=1&query=Meat+Up+西門",
      "place_id": "",
      "description": "位於台北西門町的超人氣美式餐廳，以浮誇系甜點與網美風格裝潢聞名，寵物友善。",
      "lat": 25.0446517,
      "lng": 121.5076793,
      "category": "美食",
      "city": "台北市",
      "popular_product": "炙燒香蒜牛排義大利麵、草莓101、培根起司舒芙蕾"
    },
    {
      "name": "Pulima Bistro 原食",
      "url": "https://www.google.com/maps/search/?api=1&query=Pulima+Bistro+屏東",
      "place_id": "",
      "description": "位於屏東的特色餐酒館，提供融合在地食材的美味料理與舒適的用餐氛圍。",
      "lat": 22.6777842,
      "lng": 120.4852416,
      "category": "美食",
      "city": "屏東縣",
      "popular_product": "特色創意料理、調酒"
    },
    {
      "name": "阿三哥牛肉麵（大里店）",
      "url": "https://www.google.com/maps/search/?api=1&query=阿三哥牛肉麵+台中大里",
      "place_id": "",
      "description": "位於台中大里的在地老字號牛肉麵，以軟嫩入味的牛肉與清爽湯頭深受喜愛。",
      "lat": 24.1099899,
      "lng": 120.7022396,
      "category": "美食",
      "city": "台中市",
      "popular_product": "牛肉麵、酸辣湯、滷味拼盤"
    },
    {
      "name": "Jesse Claire Ice Cream",
      "url": "https://www.google.com/maps/search/?api=1&query=Jesse+Claire+Ice+Cream+Kaohsiung",
      "place_id": "",
      "description": "位於高雄的創意冰淇淋專賣店，以獨特的酒香冰淇淋聞名，口味豐富。",
      "lat": 22.6439544,
      "lng": 120.3073831,
      "category": "飲料店",
      "city": "高雄市",
      "popular_product": "奶酒冰淇淋、蘭姆酒冰淇淋"
    },
    {
      "name": "眼鏡工場眼鏡行-枋寮",
      "url": "https://www.google.com/maps/search/?api=1&query=眼鏡工場眼鏡行+屏東枋寮",
      "place_id": "",
      "description": "位於屏東枋寮的在地眼鏡行，提供專業驗光與配鏡服務。",
      "lat": 22.3683093,
      "lng": 120.593508,
      "category": "購物",
      "city": "屏東縣",
      "popular_product": "驗光配鏡、隱形眼鏡"
    },
    {
      "name": "阿肚仔地瓜餅",
      "url": "https://www.google.com/maps/search/?api=1&query=阿肚仔地瓜餅+屏東潮州",
      "place_id": "",
      "description": "位於屏東潮州的30年老字號點心攤，現做的地瓜餅口感軟糯，甜而不膩。",
      "lat": 22.5486007,
      "lng": 120.54017,
      "category": "美食",
      "city": "屏東縣",
      "popular_product": "起司地瓜餅、花生地瓜餅、芝麻地瓜餅"
    },
    {
      "name": "Alex Reggae Bar",
      "url": "https://www.google.com/maps/search/?api=1&query=Alex+Reggae+Bar+Kenting",
      "place_id": "",
      "description": "位於屏東墾丁的雷鬼主題酒吧，氣氛放鬆，提供美味的BBQ與調酒。",
      "lat": 21.9445036,
      "lng": 120.7977183,
      "category": "酒吧",
      "city": "屏東縣",
      "popular_product": "BBQ烤肉、莫希托(Mojito)、調酒"
    },
    {
      "name": "Casa de Moalboal",
      "url": "",
      "place_id": "",
      "description": "Casa de Moalboal是位於海外的3 星級飯店",
      "lat": 9.9357889,
      "lng": 123.3781255,
      "category": "住宿",
      "city": "海外",
      "popular_product": ""
    },
    {
      "name": "瑯嶠金屬工作室",
      "url": "",
      "place_id": "",
      "description": "位於屏東恆春的金工工作室，提供客製化銀飾與金工課程體驗。",
      "lat": 21.9969048,
      "lng": 120.7437757,
      "category": "藝文/工作室",
      "city": "屏東縣",
      "popular_product": "客製化銀飾、金工課程"
    },
    {
      "name": "珈琲朗 Coffee Lounge [ 飯糰餐11:00供應］",
      "url": "",
      "place_id": "",
      "description": "珈琲朗 Coffee Lounge [ 飯糰餐11:00供應］是位於屏東縣的咖啡店",
      "lat": 22.2620975,
      "lng": 120.6508851,
      "category": "咖啡廳",
      "city": "屏東縣",
      "popular_product": ""
    },
    {
      "name": "吾棲甜點工作室",
      "url": "",
      "place_id": "",
      "description": "吾棲甜點工作室是位於屏東縣的暫時關閉",
      "lat": 22.0095145,
      "lng": 120.747264,
      "category": "其他",
      "city": "屏東縣",
      "popular_product": ""
    },
    {
      "name": "AJ•BURGER",
      "url": "",
      "place_id": "",
      "description": "AJ•BURGER是位於屏東縣的漢堡飽",
      "lat": 21.9877994,
      "lng": 120.7324075,
      "category": "美食",
      "city": "屏東縣",
      "popular_product": ""
    },
    {
      "name": "LI.KA CAFE 力卡珈琲",
      "url": "",
      "place_id": "",
      "description": "LI.KA CAFE 力卡珈琲是位於台東縣的咖啡店",
      "lat": 22.5312706,
      "lng": 120.9662915,
      "category": "咖啡廳",
      "city": "台東縣",
      "popular_product": ""
    },
    {
      "name": "華珍早餐 二代旗艦店",
      "url": "https://www.google.com/maps/place/華珍早餐二代旗艦店/",
      "place_id": "",
      "description": "位於屏東東港的老字號早餐店，提供舒適環境與傳統中式早點。",
      "lat": 22.4672199,
      "lng": 120.4503194,
      "category": "美食",
      "city": "屏東縣",
      "popular_product": "養生豆皮、馬來西亞軟餅、上海養生酥餅"
    },
    {
      "name": "半熟早午餐Over Eazy Brunch（已停業）",
      "url": "https://www.google.com/maps/search/?api=1&query=半熟早午餐+Over+Eazy+Brunch+屏東",
      "place_id": "",
      "description": "位於恆春的高CP值早午餐，無預約制，提供特製蛋沙拉小圓法拼盤與美式早午餐。",
      "lat": 21.9991003,
      "lng": 120.7411939,
      "category": "美食",
      "city": "屏東縣",
      "popular_product": "特製蛋沙拉小圓法拼盤、半熟經典美式早午餐"
    },
    {
      "name": "人人健身房",
      "url": "https://www.google.com/maps/search/?api=1&query=人人健身房+高雄",
      "place_id": "",
      "description": "位於高雄大社的計次制健身房，無須綁約，設備齊全適合新手。",
      "lat": 22.5605664,
      "lng": 120.3687602,
      "category": "其他",
      "city": "高雄市",
      "popular_product": "計次健身"
    },
    {
      "name": "看海美術館",
      "url": "https://www.google.com/maps/search/?api=1&query=看海美術館+屏東",
      "place_id": "",
      "description": "位於屏東車城海口港的玻璃帷幕美術館，前身為候船室，定期舉辦各類藝術展覽。",
      "lat": 22.089931,
      "lng": 120.7152811,
      "category": "藝文/工作室",
      "city": "屏東縣",
      "popular_product": "藝術展覽、吹風看海廊道"
    },
    {
      "name": "打個蛋海旅",
      "url": "https://www.google.com/maps/search/?api=1&query=打個蛋海旅+台東",
      "place_id": "",
      "description": "位於台東金崙的質感民宿，名稱源自排灣族語「睡覺的地方」，鄰近海灘，提供放鬆的住宿體驗。",
      "lat": 22.5313538,
      "lng": 120.9662818,
      "category": "住宿",
      "city": "台東縣",
      "popular_product": "海景住宿、排灣族風味餐"
    },
    {
      "name": "留下旅舍/ The Way Hostel&Bar",
      "url": "https://www.google.com/maps/search/?api=1&query=留下旅舍+屏東",
      "place_id": "",
      "description": "位於屏東東港近大鵬灣的背包客棧，提供舒適住宿與親切服務，設有公共交誼廳。",
      "lat": 22.4611545,
      "lng": 120.4607024,
      "category": "其他",
      "city": "屏東縣",
      "popular_product": "背包客住宿、旅遊資訊"
    },
    {
      "name": "莎曼莎咖啡茶飲",
      "url": "https://www.google.com/maps/search/?api=1&query=莎曼莎咖啡茶飲+高雄",
      "place_id": "",
      "description": "其邁落選咖啡會贊助店家。位於高雄的餐飲店，提供咖啡、茶飲、輕食及炸物。",
      "lat": 22.5385189,
      "lng": 120.4029869,
      "category": "美食",
      "city": "高雄市",
      "popular_product": "咖啡、茶飲、輕食"
    },
    {
      "name": "祥濱辦桌-外燴宴席服務團隊-(戶外廟會推薦、尾牙春酒、企業活動、搶手年菜、真空料理包宅配)",
      "url": "https://www.google.com/maps/search/?api=1&query=祥濱辦桌+高雄",
      "place_id": "",
      "description": "位於高雄的老字號辦桌外燴團隊，專精傳統宴席料理與真空料理包，提供佛跳牆、櫻花蝦米糕等招牌菜。",
      "lat": 22.5023025,
      "lng": 120.3940826,
      "category": "其他",
      "city": "高雄市",
      "popular_product": "八珍魚翅羹、紹興醉雞腿、佛跳牆、櫻花蝦米糕"
    },
    {
      "name": "EK 烘焙 | 自家烘焙咖啡豆、麵包",
      "url": "https://www.google.com/maps/search/?api=1&query=EK+烘焙+屏東",
      "place_id": "",
      "description": "位於屏東潮州的烘焙工作室，由TISCA冠軍烘豆師經營，提供高品質自烘咖啡豆、麵包與瑪德蓮。",
      "lat": 22.5450106,
      "lng": 120.5682253,
      "category": "咖啡廳",
      "city": "屏東縣",
      "popular_product": "自烘咖啡豆、麵包、瑪德蓮"
    },
    {
      "name": "Well Energy Practice 維康中醫診所",
      "url": "null",
      "place_id": "",
      "description": "旅居澳洲雪梨的深綠台灣人。位於澳洲雪梨的中醫診所。",
      "lat": 24.1268906,
      "lng": 120.6652902,
      "category": "醫療",
      "city": "海外",
      "popular_product": ""
    },
    {
      "name": "摩斯漢堡 頂溪店",
      "url": "https://www.google.com/maps/search/?api=1&query=摩斯漢堡+頂溪店",
      "place_id": "",
      "description": "摩斯漢堡 頂溪店是位於新北市的餐廳",
      "lat": 25.0146466,
      "lng": 121.5156193,
      "category": "美食",
      "city": "新北市",
      "popular_product": ""
    },
    {
      "name": "品味麵亭",
      "url": "https://www.google.com/maps/search/?api=1&query=品味麵亭+台北",
      "place_id": "",
      "description": "位於台北中山區錦州街的高評價麵食館，提供各式麵食與滷味。",
      "lat": 25.0602278,
      "lng": 121.5246255,
      "category": "美食",
      "city": "台北市",
      "popular_product": "各式麵食、滷味"
    },
    {
      "name": "一志雞排",
      "url": "https://www.google.com/maps/search/?api=1&query=一志雞排+台北",
      "place_id": "",
      "description": "位於台北中正區濟南路的超人氣炸雞排攤，外酥內嫩，營業時間短，被譽為立院三寶之一。",
      "lat": 25.0429227,
      "lng": 121.5223091,
      "category": "美食",
      "city": "台北市",
      "popular_product": "雞排、雞塊"
    },
    {
      "name": "你好禮好民宿",
      "url": "https://www.google.com/maps/search/?api=1&query=你好禮好民宿+嘉義",
      "place_id": "",
      "description": "位於嘉義竹崎的合法民宿，鄰近親水公園與阿里山鐵路，特色為滿室檜木香氣與完善的包棟設施。",
      "lat": 23.5148761,
      "lng": 120.5466311,
      "category": "住宿",
      "city": "嘉義縣",
      "popular_product": "住宿、包棟"
    },
    {
      "name": "BURGER OUT",
      "url": "https://www.google.com/maps/search/?api=1&query=BURGER+OUT+台北",
      "place_id": "",
      "description": "位於台北信義區的美味炸雞漢堡店，以酥脆多汁的炸雞搭配日式、泰式等多種風味醬料聞名。",
      "lat": 25.0431633,
      "lng": 121.563065,
      "category": "美食",
      "city": "台北市",
      "popular_product": "日式山葵美乃滋炸雞堡、炙燒明太子炸雞堡、炸雞湯圓"
    },
    {
      "name": "摩斯漢堡 蘇澳服務區店",
      "url": "",
      "place_id": "",
      "description": "摩斯漢堡 蘇澳服務區店是位於宜蘭縣的快餐",
      "lat": 24.6213136,
      "lng": 121.8156066,
      "category": "美食",
      "city": "宜蘭縣",
      "popular_product": ""
    },
    {
      "name": "摩斯漢堡 竹林店",
      "url": "",
      "place_id": "",
      "description": "摩斯漢堡 竹林店是位於新北市的漢堡飽",
      "lat": 25.0092243,
      "lng": 121.5207006,
      "category": "美食",
      "city": "新北市",
      "popular_product": ""
    },
    {
      "name": "滿上仙草茶飲專賣店 台北松江店",
      "url": "",
      "place_id": "",
      "description": "滿上仙草茶飲專賣店 台北松江店是位於台北市的冰品飲料店",
      "lat": 25.0487859,
      "lng": 121.5327458,
      "category": "飲料店",
      "city": "台北市",
      "popular_product": ""
    },
    {
      "name": "茶田35號 小笠原二館（預約優先制)",
      "url": "",
      "place_id": "",
      "description": "茶田35號 小笠原二館（預約優先制)是位於嘉義縣的茶藝館",
      "lat": 23.5072119,
      "lng": 120.8232164,
      "category": "藝文/工作室",
      "city": "嘉義縣",
      "popular_product": ""
    },
    {
      "name": "沐荼寺淡海店-臺灣精品茶飲專門Mutucha",
      "url": "",
      "place_id": "",
      "description": "沐荼寺：堅持使用台灣茶、台農物料，管理者為純台資*永泰豐國際有限公司* · https://www.facebook.com/share/p/14eHT7gxDN/ · 淡海店：經營者小編1450，可拿青鳥貼紙包 · https://www.threads.net/@acatarbt",
      "lat": 25.1960467,
      "lng": 121.438661,
      "category": "飲料店",
      "city": "新北市",
      "popular_product": ""
    },
    {
      "name": "台灣人蕃薯糖圓仔湯",
      "url": "",
      "place_id": "",
      "description": "台灣人蕃薯糖圓仔湯是位於嘉義市的甜品店",
      "lat": 23.477232,
      "lng": 120.4486363,
      "category": "購物",
      "city": "嘉義市",
      "popular_product": ""
    },
    {
      "name": "歪歪球 Wild Wild Ball",
      "url": "",
      "place_id": "",
      "description": "歪歪球 Wild Wild Ball是位於宜蘭縣的旅遊景點",
      "lat": 24.6129371,
      "lng": 121.83167,
      "category": "其他",
      "city": "宜蘭縣",
      "popular_product": ""
    },
    {
      "name": "公館阿姨滷味-滷味/輕食/健康養生/平價美食",
      "url": "",
      "place_id": "",
      "description": "公館阿姨滷味-滷味/輕食/健康養生/平價美食是位於台北市的熟食店",
      "lat": 25.0164054,
      "lng": 121.5322509,
      "category": "美食",
      "city": "台北市",
      "popular_product": ""
    },
    {
      "name": "莆林庄(大林肉夾饃）一至六正常營業禮拜天固定休息",
      "url": "",
      "place_id": "",
      "description": "莆林庄(大林肉夾饃）一至六正常營業禮拜天固定休息是位於嘉義縣的中國菜",
      "lat": 23.6002731,
      "lng": 120.460604,
      "category": "美食",
      "city": "嘉義縣",
      "popular_product": ""
    },
    {
      "name": "小巷生活豆花",
      "url": "",
      "place_id": "",
      "description": "小巷生活豆花是位於高雄市的甜品店",
      "lat": 22.629965,
      "lng": 120.308934,
      "category": "購物",
      "city": "高雄市",
      "popular_product": ""
    },
    {
      "name": "和記傻瓜麵",
      "url": "",
      "place_id": "",
      "description": "和記傻瓜麵是位於台中市的麵店",
      "lat": 24.1484354,
      "lng": 120.6826964,
      "category": "美食",
      "city": "台中市",
      "popular_product": ""
    },
    {
      "name": "沐荼寺南崁店-臺灣精品茶飲專門 蘆竹必喝飲料|飲料推薦|外送飲料|人氣茶飲|奶蓋首選|推薦手搖|熱門飲料|在地推薦飲料",
      "url": "",
      "place_id": "",
      "description": "沐荼寺：堅持使用台灣茶、台農物料，管理者為純台資*永泰豐國際有限公司* · https://www.facebook.com/share/p/14eHT7gxDN/ · 大千金茶飲：原為懷寧店，因理念不合已經解除合作",
      "lat": 25.0438199,
      "lng": 121.2922367,
      "category": "其他",
      "city": "桃園市",
      "popular_product": ""
    },
    {
      "name": "沐荼寺內湖店-臺灣精品茶飲專門",
      "url": "",
      "place_id": "",
      "description": "沐荼寺：堅持使用台灣茶、台農物料，管理者為純台資*永泰豐國際有限公司* · https://www.facebook.com/share/p/14eHT7gxDN/ · 大千金茶飲：原為懷寧店，因理念不合已經解除合作",
      "lat": 25.0839156,
      "lng": 121.5678279,
      "category": "飲料店",
      "city": "台北市",
      "popular_product": ""
    },
    {
      "name": "沐荼寺竹北店-臺灣精品茶飲專門",
      "url": "",
      "place_id": "",
      "description": "沐荼寺：堅持使用台灣茶、台農物料，管理者為純台資*永泰豐國際有限公司* · https://www.facebook.com/share/p/14eHT7gxDN/ · 大千金茶飲：原為懷寧店，因理念不合已經解除合作",
      "lat": 24.8207038,
      "lng": 121.0266872,
      "category": "飲料店",
      "city": "新竹縣",
      "popular_product": ""
    },
    {
      "name": "沐荼寺林口店-臺灣精品茶飲專門",
      "url": "",
      "place_id": "",
      "description": "沐荼寺：堅持使用台灣茶、台農物料，管理者為純台資*永泰豐國際有限公司* · https://www.facebook.com/share/p/14eHT7gxDN/ · 大千金茶飲：原為懷寧店，因理念不合已經解除合作",
      "lat": 25.069764,
      "lng": 121.3667461,
      "category": "飲料店",
      "city": "新北市",
      "popular_product": ""
    },
    {
      "name": "沐荼寺蘆洲店 臺灣精品茶飲專門店mutucha",
      "url": "",
      "place_id": "",
      "description": "沐荼寺：堅持使用台灣茶、台農物料，管理者為純台資*永泰豐國際有限公司* · https://www.facebook.com/share/p/14eHT7gxDN/ · 大千金茶飲：原為懷寧店，因理念不合已經解除合作",
      "lat": 25.0806071,
      "lng": 121.4708112,
      "category": "其他",
      "city": "新北市",
      "popular_product": ""
    },
    {
      "name": "三峽-大同橋'甕仔雞'",
      "url": "",
      "place_id": "",
      "description": "來吃飯時剛好人不多 幾個客人大聊藍白多噁心 中途員工還加入聊天 而且是用台語快樂聊天",
      "lat": 24.9142728,
      "lng": 121.3657378,
      "category": "美食",
      "city": "新北市",
      "popular_product": ""
    },
    {
      "name": "蓬萊台菜餐廳",
      "url": "",
      "place_id": "",
      "description": "蓬萊台菜餐廳是位於台北市的台灣菜",
      "lat": 25.1394509,
      "lng": 121.501449,
      "category": "美食",
      "city": "台北市",
      "popular_product": ""
    },
    {
      "name": "金香豬腳•涼麵",
      "url": "",
      "place_id": "",
      "description": "金香豬腳•涼麵是位於台北市的冷麵店",
      "lat": 25.0603875,
      "lng": 121.5343753,
      "category": "美食",
      "city": "台北市",
      "popular_product": ""
    },
    {
      "name": "BearJunkies熊飲（早午餐＆酒吧）",
      "url": "",
      "place_id": "",
      "description": "貓最愛去的gaybar",
      "lat": 25.0411766,
      "lng": 121.5043785,
      "category": "美食",
      "city": "台北市",
      "popular_product": ""
    },
    {
      "name": "水森水產",
      "url": "",
      "place_id": "",
      "description": "水森水產是位於台中市的餐廳",
      "lat": 24.1486934,
      "lng": 120.6508373,
      "category": "美食",
      "city": "台中市",
      "popular_product": ""
    },
    {
      "name": "財哥專業檳榔",
      "url": "",
      "place_id": "",
      "description": "財哥專業檳榔是位於花蓮縣的蔬果加工",
      "lat": 23.940427,
      "lng": 121.582841,
      "category": "其他",
      "city": "花蓮縣",
      "popular_product": ""
    },
    {
      "name": "Twomi Coffee 岡山店（沒有貓，十點不收客）",
      "url": "",
      "place_id": "",
      "description": "Twomi Coffee 岡山店（沒有貓，十點不收客）是位於高雄市的咖啡店",
      "lat": 22.793813,
      "lng": 120.297994,
      "category": "咖啡廳",
      "city": "高雄市",
      "popular_product": ""
    },
    {
      "name": "長榮小吃(小吃店）",
      "url": "",
      "place_id": "",
      "description": "長榮小吃(小吃店）是位於新北市的熟食店",
      "lat": 25.1336034,
      "lng": 121.8203761,
      "category": "美食",
      "city": "新北市",
      "popular_product": ""
    },
    {
      "name": "基河臭豆腐",
      "url": "",
      "place_id": "",
      "description": "基河臭豆腐是位於台北市的中國菜",
      "lat": 25.0862984,
      "lng": 121.5249504,
      "category": "美食",
      "city": "台北市",
      "popular_product": ""
    },
    {
      "name": "Puzzle Kitchen 味道拼圖 西寧店",
      "url": "",
      "place_id": "",
      "description": "Puzzle Kitchen 味道拼圖 西寧店是位於台北市的餐廳",
      "lat": 25.0445879,
      "lng": 121.506339,
      "category": "美食",
      "city": "台北市",
      "popular_product": ""
    },
    {
      "name": "台東客來吃樂（店休不固定，請查詢粉絲專頁））",
      "url": "",
      "place_id": "",
      "description": "台東客來吃樂（店休不固定，請查詢粉絲專頁））是位於台東縣的中式麵食",
      "lat": 22.7545696,
      "lng": 121.1459322,
      "category": "美食",
      "city": "台東縣",
      "popular_product": ""
    },
    {
      "name": "大衛洋咖啡DAVIDYANG COFFEE",
      "url": "",
      "place_id": "",
      "description": "大衛洋咖啡DAVIDYANG COFFEE是位於台南市的咖啡店",
      "lat": 22.9889126,
      "lng": 120.2048861,
      "category": "咖啡廳",
      "city": "台南市",
      "popular_product": ""
    },
    {
      "name": "途中．台東國際青年旅舍 On My Way．Taitung Hostel & Backpacker",
      "url": "",
      "place_id": "",
      "description": "途中．台東國際青年旅舍 On My Way．Taitung Hostel & Backpacker是位於台東縣的2 星級飯店",
      "lat": 22.7974044,
      "lng": 121.1241167,
      "category": "住宿",
      "city": "台東縣",
      "popular_product": ""
    },
    {
      "name": "WEBBERHOOD COFFEE ROASTERS -無訂位",
      "url": "",
      "place_id": "",
      "description": "哎",
      "lat": 24.9926001,
      "lng": 121.2837943,
      "category": "咖啡廳",
      "city": "桃園市",
      "popular_product": ""
    },
    {
      "name": "Weekend Planners 酵想 / 營業時間12：00ー售完為止",
      "url": "",
      "place_id": "",
      "description": "Weekend Planners 酵想 / 營業時間12：00ー售完為止是位於新竹市的甜品店",
      "lat": 24.8083884,
      "lng": 120.9705243,
      "category": "購物",
      "city": "新竹市",
      "popular_product": ""
    },
    {
      "name": "福福鋼筆店",
      "url": "",
      "place_id": "",
      "description": "福福鋼筆店是位於花蓮縣的文具店",
      "lat": 23.9771502,
      "lng": 121.6093913,
      "category": "購物",
      "city": "花蓮縣",
      "popular_product": ""
    },
    {
      "name": "康橋商旅 台東館",
      "url": "",
      "place_id": "",
      "description": "康橋商旅 台東館是位於台東縣的3 星級飯店",
      "lat": 22.7674011,
      "lng": 121.1420972,
      "category": "住宿",
      "city": "台東縣",
      "popular_product": ""
    },
    {
      "name": "J. R. Waterwoods",
      "url": "",
      "place_id": "",
      "description": "J. R. Waterwoods是位於台北市的服裝店",
      "lat": 25.1208667,
      "lng": 121.5315463,
      "category": "購物",
      "city": "台北市",
      "popular_product": ""
    },
    {
      "name": "戰鬥雞 台中龍井新興店｜水晶油雞｜紹興醉雞｜泰式酸辣｜涼拌鮮雞｜新鮮蔬菜｜養生雞湯｜輕食餐盒｜健身運動｜健康餐盒｜增肌減脂｜好吃便當｜外帶美食｜特色小吃｜台中美食推薦",
      "url": "",
      "place_id": "",
      "description": "戰鬥雞 台中龍井新興店｜水晶油雞｜紹興醉雞｜泰式酸辣｜涼拌鮮雞｜新鮮蔬菜｜養生雞湯｜輕食餐盒｜健身運動｜健康餐盒｜增肌減脂｜好吃便當｜外帶美食｜特色小吃｜台中美食推薦是位於台中市的中國菜",
      "lat": 24.1821963,
      "lng": 120.5835902,
      "category": "美食",
      "city": "台中市",
      "popular_product": ""
    },
    {
      "name": "五色鳥底片沖掃&現烘咖啡豆",
      "url": "",
      "place_id": "",
      "description": "反核旗幟",
      "lat": 25.013651,
      "lng": 121.534973,
      "category": "藝文/工作室",
      "city": "台北市",
      "popular_product": ""
    },
    {
      "name": "四序自修室",
      "url": "",
      "place_id": "",
      "description": "四序自修室是位於桃園市的K 書中心",
      "lat": 24.9948318,
      "lng": 121.29593,
      "category": "書店",
      "city": "桃園市",
      "popular_product": ""
    },
    {
      "name": "成功海銀行",
      "url": "",
      "place_id": "",
      "description": "成功海銀行是位於台東縣的餐廳",
      "lat": 23.1004993,
      "lng": 121.3784724,
      "category": "美食",
      "city": "台東縣",
      "popular_product": ""
    },
    {
      "name": "那瑪夏LU-MAH餐廳&民宿",
      "url": "",
      "place_id": "",
      "description": "台鋼雄鷹應援團長-希本家的民宿",
      "lat": 23.2182892,
      "lng": 120.6932808,
      "category": "住宿",
      "city": "高雄市",
      "popular_product": ""
    },
    {
      "name": "成名咖啡",
      "url": "",
      "place_id": "",
      "description": "1.支援台南青鳥宴店家👍 2.響應黑熊學院主戰派活動",
      "lat": 22.9647601,
      "lng": 120.2861212,
      "category": "咖啡廳",
      "city": "台南市",
      "popular_product": ""
    },
    {
      "name": "拾位製飯所",
      "url": "",
      "place_id": "",
      "description": "拾位製飯所是位於桃園市的餐廳",
      "lat": 24.9885233,
      "lng": 121.3106693,
      "category": "美食",
      "city": "桃園市",
      "popular_product": ""
    },
    {
      "name": "綠野山莊花園餐廳",
      "url": "",
      "place_id": "",
      "description": "綠野山莊花園餐廳是位於高雄市的中國菜",
      "lat": 22.7352698,
      "lng": 120.3731734,
      "category": "美食",
      "city": "高雄市",
      "popular_product": ""
    },
    {
      "name": "吃光食堂",
      "url": "",
      "place_id": "",
      "description": "吃光食堂是位於台中市的食堂與定食餐廳",
      "lat": 24.1417528,
      "lng": 120.6702538,
      "category": "美食",
      "city": "台中市",
      "popular_product": ""
    },
    {
      "name": "外皮超脆手作紅豆餅",
      "url": null,
      "place_id": "",
      "description": "外皮超脆手作紅豆餅是位於新北市的餐廳",
      "lat": 25.0243272,
      "lng": 121.4705256,
      "category": "美食",
      "city": "新北市",
      "popular_product": ""
    },
    {
      "name": "我不渣 咖啡渣 Coffee Geek/咖啡/調酒/台北咖啡廳/西門咖啡廳/coffee/咖啡小酒館/捷運西門站/西門咖啡/甜點/巴斯克乳酪蛋糕/鬆餅/提拉米蘇/外帶/內用",
      "url": "",
      "place_id": "",
      "description": " (可以喝的到老闆用心製作的咖啡☕️ 咖啡豆供應是爐鍋咖啡好喝！)",
      "lat": 25.0458455,
      "lng": 121.5043109,
      "category": "咖啡廳",
      "city": "台北市",
      "popular_product": ""
    },
    {
      "name": "Okinawa Yamato Transport Co., Ltd.Makishi-Ichiba Center",
      "url": "",
      "place_id": "",
      "description": "Okinawa Yamato Transport Co., Ltd.Makishi-Ichiba Center是位於海外的運送服務",
      "lat": 26.2146392,
      "lng": 127.6876485,
      "category": "其他",
      "city": "海外",
      "popular_product": ""
    },
    {
      "name": "沖咖啡公民會館/立法委員鍾佳濱服務處",
      "url": "",
      "place_id": "",
      "description": "沖咖啡公民會館/立法委員鍾佳濱服務處是位於屏東縣的非政府組織",
      "lat": 22.6654282,
      "lng": 120.4903436,
      "category": "其他",
      "city": "屏東縣",
      "popular_product": ""
    },
    {
      "name": "叁捌地方生活。3080s Local Style",
      "url": "",
      "place_id": "",
      "description": "",
      "lat": 22.624452,
      "lng": 120.2821623,
      "category": "其他",
      "city": "高雄市",
      "popular_product": ""
    },
    {
      "name": "喫茶月滿・月滿小書店",
      "url": "",
      "place_id": "",
      "description": "",
      "lat": 24.1397987,
      "lng": 120.6806619,
      "category": "美食",
      "city": "台中市",
      "popular_product": ""
    },
    {
      "name": "鹿耳晚晚",
      "url": "",
      "place_id": "",
      "description": "響應黑熊學院主站派店家",
      "lat": 22.9842419,
      "lng": 120.2151697,
      "category": "美食",
      "city": "台南市",
      "popular_product": ""
    },
    {
      "name": "酒室宋宅",
      "url": "",
      "place_id": "",
      "description": "酒室宋宅是位於彰化縣的酒吧",
      "lat": 23.9526882,
      "lng": 120.5729892,
      "category": "酒吧",
      "city": "彰化縣",
      "popular_product": ""
    },
    {
      "name": "小獸書屋",
      "url": "",
      "place_id": "",
      "description": "1. 拆樑友善店家 2. ",
      "lat": 25.1279792,
      "lng": 121.7439873,
      "category": "書店",
      "city": "基隆市",
      "popular_product": ""
    },
    {
      "name": "極度剪髮",
      "url": "",
      "place_id": "",
      "description": "極度剪髮是位於台北市的男士理髮店",
      "lat": 25.056963,
      "lng": 121.5196763,
      "category": "購物",
      "city": "台北市",
      "popular_product": ""
    },
    {
      "name": "布田食品 PeanuTend-艋舺老爐火花生糖｜萬華人氣禮盒伴手禮名店",
      "url": "",
      "place_id": "",
      "description": "1. 沛憶推薦 2. ",
      "lat": 25.0268609,
      "lng": 121.4959409,
      "category": "購物",
      "city": "台北市",
      "popular_product": ""
    },
    {
      "name": "家吶子台式居酒屋 Ka-la̍h-á",
      "url": "https://www.google.com/maps/place/%E5%AE%B6%E5%90%B6%E5%AD%90%E5%8F%B0%E5%BC%8F%E5%B1%85%E9%85%92%E5%B1%8B+Ka-la%CC%8Dh-%C3%A1/data=!4m2!3m1!1s0x3442a9b41b18bb0f:0xe850de81a52a2756",
      "place_id": "0x3442a9b41b18bb0f:0xe850de81a52a2756",
      "description": "",
      "lat": 25.0256716,
      "lng": 121.4964354,
      "category": "酒吧",
      "city": "台北市",
      "popular_product": ""
    },
    {
      "name": "顏記杏仁露",
      "url": "",
      "place_id": "",
      "description": "",
      "lat": 25.0550268,
      "lng": 121.5101962,
      "category": "購物",
      "city": "台北市",
      "popular_product": ""
    },
    {
      "name": "現流冊店 hiān-lâu tsheh-tiàm",
      "url": "",
      "place_id": "",
      "description": "現流冊店 hiān-lâu tsheh-tiàm是位於台北市的書店",
      "lat": 25.0561501,
      "lng": 121.5131574,
      "category": "書店",
      "city": "台北市",
      "popular_product": ""
    },
    {
      "name": "𝙅𝙔𝘼 𝘾𝙤𝙛𝙛𝙚𝙚 じゃ コーヒー",
      "url": "",
      "place_id": "",
      "description": "",
      "lat": 25.0520629,
      "lng": 121.5133209,
      "category": "其他",
      "city": "台北市",
      "popular_product": ""
    },
    {
      "name": "嬉皮麵包",
      "url": "https://www.google.com/maps/place/%E5%AC%89%E7%9A%AE%E9%BA%B5%E5%8C%85/data=!4m2!3m1!1s0x3442a9673090182b:0x788857db3dd345b5",
      "place_id": "0x3442a9673090182b:0x788857db3dd345b5",
      "description": "1. 有參與青鳥行動，店裡貼有「藐視 黑箱」海報（2024.05版） 2. Puma 在加開零食會吃搖滾巧克力跟巧克力蛋糕麵包 3. ",
      "lat": 25.0537458,
      "lng": 121.5306269,
      "category": "美食",
      "city": "台北市",
      "popular_product": ""
    },
    {
      "name": "紅氣球島之食華山店",
      "url": "",
      "place_id": "",
      "description": "",
      "lat": 25.0440942,
      "lng": 121.5295986,
      "category": "其他",
      "city": "台北市",
      "popular_product": ""
    },
    {
      "name": "未央咖啡店",
      "url": "",
      "place_id": "",
      "description": "",
      "lat": 25.0262375,
      "lng": 121.5474209,
      "category": "咖啡廳",
      "city": "台北市",
      "popular_product": ""
    },
    {
      "name": "Lumaq 露瑪恪｜咖啡．選物",
      "url": "",
      "place_id": "",
      "description": "1. 可索取脆友製作「莫惹台灣人」貼紙 2. ",
      "lat": 25.0468256,
      "lng": 121.5045372,
      "category": "咖啡廳",
      "city": "台北市",
      "popular_product": ""
    },
    {
      "name": "三頁同 預訂制生日&節慶蛋糕",
      "url": "",
      "place_id": "",
      "description": "",
      "lat": 25.0306038,
      "lng": 121.5059504,
      "category": "購物",
      "city": "台北市",
      "popular_product": ""
    },
    {
      "name": "Under160 by _holic / 尻蕊有限公司",
      "url": "",
      "place_id": "",
      "description": "Under160 by _holic / 尻蕊有限公司是位於台北市的咖啡店",
      "lat": 25.053832,
      "lng": 121.509595,
      "category": "咖啡廳",
      "city": "台北市",
      "popular_product": ""
    },
    {
      "name": "楫文社 ｜Bookboating Bookstore｜文學創作者的書店",
      "url": "",
      "place_id": "",
      "description": "",
      "lat": 25.0041461,
      "lng": 121.5222326,
      "category": "書店",
      "city": "新北市",
      "popular_product": ""
    },
    {
      "name": "回甘Aftertaste (書、茶、咖啡、好食），公休日及供餐時間請至FB&IG查看。",
      "url": "",
      "place_id": "",
      "description": "1. 協助NGO團體好民文化行動舉辦多次活動，詳見FB貼文。 2. ",
      "lat": 24.1555289,
      "lng": 120.6301808,
      "category": "書店",
      "city": "台中市",
      "popular_product": ""
    },
    {
      "name": "米地書店 Vitae Book House （預約制）",
      "url": "",
      "place_id": "",
      "description": "",
      "lat": 23.7043445,
      "lng": 120.5441934,
      "category": "書店",
      "city": "雲林縣",
      "popular_product": ""
    },
    {
      "name": "小戶冊咖啡（公休日請看貼文哦）",
      "url": "",
      "place_id": "",
      "description": "小戶冊咖啡（公休日請看貼文哦）是位於雲林縣的咖啡店",
      "lat": 23.7094442,
      "lng": 120.548145,
      "category": "咖啡廳",
      "city": "雲林縣",
      "popular_product": ""
    },
    {
      "name": "三餘書店",
      "url": "",
      "place_id": "",
      "description": "",
      "lat": 22.6306268,
      "lng": 120.31557,
      "category": "書店",
      "city": "高雄市",
      "popular_product": ""
    },
    {
      "name": "食冊cafe書店",
      "url": "",
      "place_id": "",
      "description": "",
      "lat": 22.7622207,
      "lng": 121.1406604,
      "category": "書店",
      "city": "台東縣",
      "popular_product": ""
    },
    {
      "name": "饗食天堂 高雄夢時代店",
      "url": "",
      "place_id": "",
      "description": "饗食天堂 高雄夢時代店是位於高雄市的自助餐廳",
      "lat": 22.5954406,
      "lng": 120.3081324,
      "category": "美食",
      "city": "高雄市",
      "popular_product": ""
    },
    {
      "name": "饗食天堂 LaLaport台中店",
      "url": "",
      "place_id": "",
      "description": "饗食天堂 LaLaport台中店是位於台中市的自助餐",
      "lat": 24.1340679,
      "lng": 120.6923843,
      "category": "美食",
      "city": "台中市",
      "popular_product": ""
    },
    {
      "name": "饗食天堂 台中店",
      "url": "",
      "place_id": "",
      "description": "饗食天堂 台中店是位於台中市的自助餐",
      "lat": 24.1637002,
      "lng": 120.6446167,
      "category": "美食",
      "city": "台中市",
      "popular_product": ""
    },
    {
      "name": "饗食天堂 台北信義店",
      "url": "",
      "place_id": "",
      "description": "饗食天堂 台北信義店是位於台北市的自助餐",
      "lat": 25.03531,
      "lng": 121.5660665,
      "category": "美食",
      "city": "台北市",
      "popular_product": ""
    },
    {
      "name": "饗食天堂 新北板橋店",
      "url": "",
      "place_id": "",
      "description": "饗食天堂 新北板橋店是位於新北市的自助餐廳",
      "lat": 25.0109601,
      "lng": 121.4644536,
      "category": "美食",
      "city": "新北市",
      "popular_product": ""
    },
    {
      "name": "饗食天堂 台北京站店",
      "url": "",
      "place_id": "",
      "description": "饗食天堂 台北京站店是位於台北市的自助餐",
      "lat": 25.049308,
      "lng": 121.5171935,
      "category": "美食",
      "city": "台北市",
      "popular_product": ""
    },
    {
      "name": "Isneakers 一中潮流鞋店",
      "url": "",
      "place_id": "",
      "description": "Isneakers 一中潮流鞋店是位於台中市的鞋品店",
      "lat": 24.148851,
      "lng": 120.682701,
      "category": "購物",
      "city": "台中市",
      "popular_product": ""
    },
    {
      "name": "SabiSabi Coffee&Sweets 花蓮老宅神級肉桂捲",
      "url": "",
      "place_id": "",
      "description": " (肉桂捲、司康、蛋糕，都可以宅配喔)",
      "lat": 23.986234,
      "lng": 121.6232898,
      "category": "其他",
      "city": "花蓮縣",
      "popular_product": ""
    },
    {
      "name": "馨味胡椒白菜雞",
      "url": "",
      "place_id": "",
      "description": "馨味胡椒白菜雞是位於台南市的暫時關閉",
      "lat": 23.0160129,
      "lng": 120.211426,
      "category": "其他",
      "city": "台南市",
      "popular_product": ""
    },
    {
      "name": "Chuka Seitaigo",
      "url": "",
      "place_id": "",
      "description": "Chuka Seitaigo是位於海外的餐廳",
      "lat": 35.7075331,
      "lng": 139.6637591,
      "category": "美食",
      "city": "海外",
      "popular_product": ""
    },
    {
      "name": "山米咖啡所",
      "url": "",
      "place_id": "",
      "description": "",
      "lat": 22.9933664,
      "lng": 120.222186,
      "category": "咖啡廳",
      "city": "台南市",
      "popular_product": ""
    },
    {
      "name": "Catmint Cafe & Bar 貓草餐酒館",
      "url": "",
      "place_id": "",
      "description": "",
      "lat": 24.9990126,
      "lng": 121.5131815,
      "category": "酒吧",
      "city": "新北市",
      "popular_product": ""
    },
    {
      "name": "南店酒居 Minami Mise-新北永和(日式居酒屋/宵夜食堂/酒水炸物烤物/居酒屋/美食喝酒/創意調酒/酒吧必去推薦)",
      "url": "",
      "place_id": "",
      "description": "",
      "lat": 25.0102982,
      "lng": 121.5199934,
      "category": "酒吧",
      "city": "新北市",
      "popular_product": ""
    },
    {
      "name": "貳玖29diner",
      "url": "",
      "place_id": "",
      "description": "",
      "lat": 25.0576415,
      "lng": 121.4916675,
      "category": "美食",
      "city": "新北市",
      "popular_product": ""
    },
    {
      "name": "美運寶中西藥局(懂運動人，又暖心的寵物友善藥局(good fortune and health pharmacy)",
      "url": "",
      "place_id": "",
      "description": "",
      "lat": 24.9678022,
      "lng": 121.3335659,
      "category": "醫療",
      "city": "新北市",
      "popular_product": ""
    },
    {
      "name": "【久益久咖啡坊 919COFFEE】（不定休，營業時間請看FB）板橋咖啡｜板橋寵物友善｜府中咖啡｜手沖咖啡｜下午茶｜甜點｜美食｜布丁｜鬆餅｜抹茶｜ 林家花園咖啡",
      "url": "",
      "place_id": "",
      "description": "",
      "lat": 25.0093851,
      "lng": 121.4560686,
      "category": "咖啡廳",
      "city": "新北市",
      "popular_product": ""
    },
    {
      "name": "暖暮甜廚(預約制一人作業餐酒館 不定期公休)",
      "url": "",
      "place_id": "",
      "description": "",
      "lat": 25.1333003,
      "lng": 121.740161,
      "category": "美食",
      "city": "基隆市",
      "popular_product": ""
    },
    {
      "name": "啤 咖 酒 ，我們頭城見 ^_^ （預計十月中旬）",
      "url": "",
      "place_id": "",
      "description": "",
      "lat": 25.1286068,
      "lng": 121.7400871,
      "category": "咖啡廳",
      "city": "基隆市",
      "popular_product": ""
    },
    {
      "name": "四季喫茶店｜Sukui Café",
      "url": "",
      "place_id": "",
      "description": "",
      "lat": 25.1277341,
      "lng": 121.7451789,
      "category": "咖啡廳",
      "city": "基隆市",
      "popular_product": ""
    },
    {
      "name": "老鐵們炭火三明治-基隆店",
      "url": "",
      "place_id": "",
      "description": "",
      "lat": 25.1524219,
      "lng": 121.7690149,
      "category": "美食",
      "city": "基隆市",
      "popular_product": ""
    },
    {
      "name": "190 Café House 珈琲烘焙屋 - 桃園慈光店（咖啡豆販售、內用/外帶、精品手沖咖啡、貝果/甜點/鬆餅）",
      "url": "",
      "place_id": "",
      "description": "",
      "lat": 25.0051774,
      "lng": 121.2979335,
      "category": "咖啡廳",
      "city": "桃園市",
      "popular_product": ""
    },
    {
      "name": "無接待四位以上-叄拾捌號咖啡店-無訂位",
      "url": "",
      "place_id": "",
      "description": "",
      "lat": 25.0240336,
      "lng": 121.2950801,
      "category": "咖啡廳",
      "city": "桃園市",
      "popular_product": ""
    },
    {
      "name": "良肆良拾自家烘焙咖啡館",
      "url": "",
      "place_id": "",
      "description": "",
      "lat": 24.9996898,
      "lng": 121.3198711,
      "category": "咖啡廳",
      "city": "桃園市",
      "popular_product": ""
    },
    {
      "name": "The Good One Coffee Roaster ｜自家焙煎咖啡",
      "url": "",
      "place_id": "",
      "description": "",
      "lat": 25.009056,
      "lng": 121.317984,
      "category": "咖啡廳",
      "city": "桃園市",
      "popular_product": ""
    },
    {
      "name": "王增齊診所",
      "url": "",
      "place_id": "",
      "description": "",
      "lat": 25.0476233,
      "lng": 121.2922026,
      "category": "醫療",
      "city": "桃園市",
      "popular_product": ""
    },
    {
      "name": "棗子樹",
      "url": "",
      "place_id": "",
      "description": "",
      "lat": 24.7984498,
      "lng": 120.9970441,
      "category": "美食",
      "city": "新竹市",
      "popular_product": ""
    },
    {
      "name": "祥順螺絲行",
      "url": "",
      "place_id": "",
      "description": "",
      "lat": 24.798817,
      "lng": 120.9641396,
      "category": "購物",
      "city": "新竹市",
      "popular_product": ""
    },
    {
      "name": "Canimama點心舖",
      "url": "",
      "place_id": "",
      "description": "1. 反擴權旗幟 2.  (聽說百香果很好吃)",
      "lat": 24.8027982,
      "lng": 120.9751525,
      "category": "咖啡廳",
      "city": "新竹市",
      "popular_product": ""
    },
    {
      "name": "磨實 Cafe & Living （營業日請查看粉專置頂公告）",
      "url": "",
      "place_id": "",
      "description": "",
      "lat": 24.6821406,
      "lng": 120.8810932,
      "category": "咖啡廳",
      "city": "苗栗縣",
      "popular_product": ""
    },
    {
      "name": "野生藝術工作室 - 暗有書 (藝術空間/書店)（搬遷中）",
      "url": "",
      "place_id": "",
      "description": "",
      "lat": 24.6895125,
      "lng": 120.8777203,
      "category": "其他",
      "city": "苗栗縣",
      "popular_product": ""
    },
    {
      "name": "The Factory Mojocoffee",
      "url": "",
      "place_id": "",
      "description": "",
      "lat": 24.1549084,
      "lng": 120.6570888,
      "category": "咖啡廳",
      "city": "台中市",
      "popular_product": ""
    },
    {
      "name": "大吉餐飲本部",
      "url": "",
      "place_id": "",
      "description": "",
      "lat": 24.1584232,
      "lng": 120.6544637,
      "category": "美食",
      "city": "台中市",
      "popular_product": ""
    },
    {
      "name": "拾年咖啡 Coffee Decade（沒有訂位，一組最多接待三人）",
      "url": "",
      "place_id": "",
      "description": "",
      "lat": 24.1464905,
      "lng": 120.6582395,
      "category": "咖啡廳",
      "city": "台中市",
      "popular_product": ""
    },
    {
      "name": "目覺咖啡",
      "url": "",
      "place_id": "",
      "description": "目覺咖啡是位於台中市的咖啡店",
      "lat": 24.1582715,
      "lng": 120.6486841,
      "category": "咖啡廳",
      "city": "台中市",
      "popular_product": ""
    },
    {
      "name": "Match Café 默契咖啡",
      "url": "",
      "place_id": "",
      "description": "",
      "lat": 24.161639,
      "lng": 120.6520644,
      "category": "咖啡廳",
      "city": "台中市",
      "popular_product": ""
    },
    {
      "name": "ChangeX Beer 南園酒家",
      "url": "",
      "place_id": "",
      "description": "1. 很常協助好民文化舉辦演講 2. ",
      "lat": 24.1379514,
      "lng": 120.6816116,
      "category": "酒吧",
      "city": "台中市",
      "popular_product": ""
    },
    {
      "name": "成名咖啡",
      "url": "",
      "place_id": "",
      "description": "成名咖啡 ",
      "lat": 22.9647594,
      "lng": 120.2861186,
      "category": "咖啡廳",
      "city": "台南市",
      "popular_product": ""
    },
    {
      "name": "GIKO偷喝 GikoTaoLin",
      "url": "",
      "place_id": "",
      "description": "1. 門口有貼反黑箱立院 2. ",
      "lat": 22.9674258,
      "lng": 120.1954732,
      "category": "飲料店",
      "city": "台南市",
      "popular_product": ""
    },
    {
      "name": "杏源珈琲Sing yuan coffee",
      "url": "https://www.google.com/maps/place/%E6%9D%8F%E6%BA%90%E7%8F%88%E7%90%B2Sing+yuan+coffee/data=!4m2!3m1!1s0x346e77addd90ce05:0xc65a604c502e538c",
      "place_id": "0x346e77addd90ce05:0xc65a604c502e538c",
      "description": "1. 菜單用台語，台到出汁 2. ",
      "lat": 22.9906567,
      "lng": 120.1984792,
      "category": "咖啡廳",
      "city": "台南市",
      "popular_product": ""
    },
    {
      "name": "珈琲地圖",
      "url": "",
      "place_id": "",
      "description": "珈琲地圖是位於台南市的咖啡店",
      "lat": 22.9908028,
      "lng": 120.2001414,
      "category": "咖啡廳",
      "city": "台南市",
      "popular_product": ""
    },
    {
      "name": "漫客餐飲(Mon Ga)",
      "url": "",
      "place_id": "",
      "description": "",
      "lat": 22.9864952,
      "lng": 120.216887,
      "category": "美食",
      "city": "台南市",
      "popular_product": ""
    },
    {
      "name": "小巷裡的拾壹號(餐點供應至16:00)",
      "url": "",
      "place_id": "",
      "description": "",
      "lat": 22.9931188,
      "lng": 120.2076142,
      "category": "咖啡廳",
      "city": "台南市",
      "popular_product": ""
    },
    {
      "name": "光禾花室｜Lumos Flower Lab",
      "url": "",
      "place_id": "",
      "description": "光禾花室｜Lumos Flower Lab是位於台南市的花店",
      "lat": 22.9827045,
      "lng": 120.225725,
      "category": "購物",
      "city": "台南市",
      "popular_product": ""
    },
    {
      "name": "潺潺咖啡（營業時間及公休日以IG為主）",
      "url": "",
      "place_id": "",
      "description": "1. 店門口有貼「望你順遂。台灣」的貼紙 2. ",
      "lat": 24.171886,
      "lng": 120.668424,
      "category": "咖啡廳",
      "city": "台南市",
      "popular_product": ""
    },
    {
      "name": "好窩「大社創始店」/椒麻雞/日式豬排/大社美食",
      "url": "https://www.google.com/maps/place/%E5%A5%BD%E7%AA%A9%E3%80%8C%E5%A4%A7%E7%A4%BE%E5%89%B5%E5%A7%8B%E5%BA%97%E3%80%8D%2F%E6%A4%92%E9%BA%BB%E9%9B%9E%2F%E6%97%A5%E5%BC%8F%E8%B1%AC%E6%8E%92%2F%E5%A4%A7%E7%A4%BE%E7%BE%8E%E9%A3%9F/data=!4m2!3m1!1s0x346e102e9b82d46f:0xd2ec1acd0eea0cc6",
      "place_id": "0x346e102e9b82d46f:0xd2ec1acd0eea0cc6",
      "description": "1. 老闆串連這次的反藐視國會黑箱 2. ",
      "lat": 22.7291126,
      "lng": 120.3514666,
      "category": "美食",
      "city": "高雄市",
      "popular_product": ""
    },
    {
      "name": "嚴家水餃 佳里店",
      "url": "",
      "place_id": "",
      "description": "嚴家水餃 佳里店是位於台南市的餃子店",
      "lat": 23.160232,
      "lng": 120.17856,
      "category": "美食",
      "city": "台南市",
      "popular_product": ""
    },
    {
      "name": "百樂門酒館",
      "url": "",
      "place_id": "",
      "description": "",
      "lat": 22.6422844,
      "lng": 120.3145888,
      "category": "酒吧",
      "city": "高雄市",
      "popular_product": ""
    },
    {
      "name": "灰。咖啡",
      "url": "",
      "place_id": "",
      "description": "",
      "lat": 22.629196,
      "lng": 120.30482,
      "category": "咖啡廳",
      "city": "高雄市",
      "popular_product": ""
    },
    {
      "name": "銀座聚場 咖啡民宿 House of TAKAO GINZA（咖啡廳營業五六日13:00-19:00）",
      "url": "",
      "place_id": "",
      "description": "",
      "lat": 22.6252069,
      "lng": 120.2813288,
      "category": "住宿",
      "city": "高雄市",
      "popular_product": ""
    },
    {
      "name": "蘇蘇食作 Susuhomemade",
      "url": "",
      "place_id": "",
      "description": "",
      "lat": 22.6486215,
      "lng": 120.2922525,
      "category": "美食",
      "city": "高雄市",
      "popular_product": ""
    },
    {
      "name": "芭樂狗 Mr.Balagov Ukrainian Cafe",
      "url": "",
      "place_id": "",
      "description": "芭樂狗 Mr.Balagov Ukrainian Cafe是位於宜蘭縣的烏克蘭餐廳",
      "lat": 24.750426,
      "lng": 121.745917,
      "category": "美食",
      "city": "宜蘭縣",
      "popular_product": ""
    },
    {
      "name": "大台南觀光城雪乳冰",
      "url": "",
      "place_id": "",
      "description": "店家有貼「台灣人不是中國人」的貼紙",
      "lat": 22.9784646,
      "lng": 120.1873637,
      "category": "飲料店",
      "city": "台南市",
      "popular_product": ""
    },
    {
      "name": "贛菜館",
      "url": "",
      "place_id": "",
      "description": "贛菜館是位於高雄市的餐廳",
      "lat": 22.6683616,
      "lng": 120.2969487,
      "category": "美食",
      "city": "高雄市",
      "popular_product": ""
    },
    {
      "name": "蘆洲海鮮王海產－海鮮｜螃蟹｜龍蝦",
      "url": "",
      "place_id": "",
      "description": "捐助箱旁放台灣國旗❤️❤️❤️",
      "lat": 25.0865827,
      "lng": 121.4607481,
      "category": "美食",
      "city": "新北市",
      "popular_product": ""
    },
    {
      "name": "誠屋拉麵",
      "url": "",
      "place_id": "",
      "description": "誠屋拉麵是位於台北市的拉麵店",
      "lat": 25.057306,
      "lng": 121.518862,
      "category": "美食",
      "city": "台北市",
      "popular_product": ""
    },
    {
      "name": "阿鳳浮水虱目魚焿",
      "url": "",
      "place_id": "",
      "description": "拿妃推薦",
      "lat": 24.1669641,
      "lng": 120.6704026,
      "category": "美食",
      "city": "台中市",
      "popular_product": ""
    },
    {
      "name": "NET 蘆洲四店",
      "url": "",
      "place_id": "",
      "description": "NET 蘆洲四店是位於新北市的服裝店",
      "lat": 25.0820084,
      "lng": 121.4636381,
      "category": "購物",
      "city": "新北市",
      "popular_product": ""
    },
    {
      "name": "博鴻游泳池",
      "url": "",
      "place_id": "",
      "description": "博鴻游泳池是位於台南市的室內游泳池",
      "lat": 22.9936964,
      "lng": 120.2314467,
      "category": "其他",
      "city": "台南市",
      "popular_product": ""
    },
    {
      "name": "拉麵らぁ麺魚堺-大安店",
      "url": "",
      "place_id": "",
      "description": "拉麵らぁ麺魚堺-大安店是位於台北市的拉麵店",
      "lat": 25.0266536,
      "lng": 121.5394228,
      "category": "美食",
      "city": "台北市",
      "popular_product": ""
    },
    {
      "name": "禾豐珈琲•本味熬製所（菜單請看LINE、無預約）",
      "url": "https://www.google.com/maps/place/%E7%A6%BE%E8%B1%90%E7%8F%88%E7%90%B2%E2%80%A2%E6%9C%AC%E5%91%B3%E7%86%AC%E8%A3%BD%E6%89%80%EF%BC%88%E8%8F%9C%E5%96%AE%E8%AB%8B%E7%9C%8BLINE%E3%80%81%E7%84%A1%E9%A0%90%E7%B4%84%EF%BC%89/data=!4m2!3m1!1s0x3442a9e2310d8a1b:0x70f321c23bc145d7",
      "place_id": "0x3442a9e2310d8a1b:0x70f321c23bc145d7",
      "description": "禾豐珈琲•本味熬製所（菜單請看LINE、無預約）是位於新北市的咖啡店",
      "lat": 25.033958,
      "lng": 121.4472933,
      "category": "咖啡廳",
      "city": "新北市",
      "popular_product": ""
    },
    {
      "name": "窩窩咖啡廳 wooo cafe",
      "url": "",
      "place_id": "",
      "description": "窩窩咖啡廳 wooo cafe是位於台北市的咖啡店",
      "lat": 25.0568075,
      "lng": 121.5092997,
      "category": "咖啡廳",
      "city": "台北市",
      "popular_product": ""
    },
    {
      "name": "良品牛肉麵",
      "url": "",
      "place_id": "",
      "description": "良品牛肉麵是位於台北市的中式麵食店",
      "lat": 25.0459368,
      "lng": 121.5138796,
      "category": "美食",
      "city": "台北市",
      "popular_product": ""
    },
    {
      "name": "老台客食麵",
      "url": "",
      "place_id": "",
      "description": "老台客食麵是位於台北市的台灣餐廳",
      "lat": 25.0448072,
      "lng": 121.5140539,
      "category": "美食",
      "city": "台北市",
      "popular_product": ""
    },
    {
      "name": "八棟圓仔湯",
      "url": "",
      "place_id": "",
      "description": "八棟圓仔湯是位於台北市的甜品餐廳",
      "lat": 25.0290609,
      "lng": 121.5060861,
      "category": "美食",
      "city": "台北市",
      "popular_product": ""
    },
    {
      "name": "諾雅整形外科診所",
      "url": "",
      "place_id": "",
      "description": "諾雅整形外科診所是位於台南市的整容醫生",
      "lat": 22.9927069,
      "lng": 120.2308878,
      "category": "醫療",
      "city": "台南市",
      "popular_product": ""
    },
    {
      "name": "千勝鋼鐵有限公司",
      "url": "",
      "place_id": "",
      "description": "千勝鋼鐵有限公司是位於新北市的鋼材經銷商",
      "lat": 25.0768554,
      "lng": 121.3544097,
      "category": "其他",
      "city": "新北市",
      "popular_product": ""
    },
    {
      "name": "泰好吃泰國船麵",
      "url": "",
      "place_id": "",
      "description": "泰好吃泰國船麵是位於台北市的泰國餐廳",
      "lat": 25.0138878,
      "lng": 121.5334094,
      "category": "美食",
      "city": "台北市",
      "popular_product": ""
    },
    {
      "name": "愛車拭-360度水刀無接觸手工洗車",
      "url": "",
      "place_id": "",
      "description": "愛車拭-360度水刀無接觸手工洗車是位於桃園市的汽車美容服務",
      "lat": 25.0103898,
      "lng": 121.2992533,
      "category": "美容",
      "city": "桃園市",
      "popular_product": ""
    },
    {
      "name": "阿億牛肉湯",
      "url": "",
      "place_id": "",
      "description": "阿億牛肉湯是位於台南市的餐廳",
      "lat": 22.9891085,
      "lng": 120.2109069,
      "category": "美食",
      "city": "台南市",
      "popular_product": ""
    },
    {
      "name": "慈緣心蔬食中和安平店",
      "url": "",
      "place_id": "",
      "description": "慈緣心蔬食中和安平店是位於新北市的素食餐廳",
      "lat": 24.998735,
      "lng": 121.512931,
      "category": "美食",
      "city": "新北市",
      "popular_product": ""
    },
    {
      "name": "阿部玖肆彩色地瓜球-鳳山中華店",
      "url": "",
      "place_id": "",
      "description": "阿部玖肆彩色地瓜球-鳳山中華店是在隔壁喔！我編輯不了……",
      "lat": 22.6275662,
      "lng": 120.3561924,
      "category": "美食",
      "city": "高雄市",
      "popular_product": ""
    },
    {
      "name": "摩斯漢堡 三重台北橋店",
      "url": "",
      "place_id": "",
      "description": "https://www.facebook.com/share/p/18Ewqu1kpK/",
      "lat": 25.0632108,
      "lng": 121.5009428,
      "category": "美食",
      "city": "新北市",
      "popular_product": ""
    },
    {
      "name": "虫洞 - vintage and select shop",
      "url": "",
      "place_id": "",
      "description": "虫洞 - vintage and select shop是位於台南市的復古服裝店",
      "lat": 22.9874627,
      "lng": 120.2149169,
      "category": "購物",
      "city": "台南市",
      "popular_product": ""
    },
    {
      "name": "BVKcurry 必咖哩",
      "url": "",
      "place_id": "",
      "description": "BVKcurry 必咖哩是位於彰化縣的餐廳",
      "lat": 24.0698902,
      "lng": 120.5369511,
      "category": "美食",
      "city": "彰化縣",
      "popular_product": ""
    },
    {
      "name": "摩斯漢堡 蘆洲長榮店",
      "url": "",
      "place_id": "",
      "description": "原因 二二八發文 · https://www.facebook.com/share/p/18Ewqu1kpK/",
      "lat": 25.0823153,
      "lng": 121.4633184,
      "category": "美食",
      "city": "新北市",
      "popular_product": ""
    },
    {
      "name": "寶島中醫診所",
      "url": "",
      "place_id": "",
      "description": "寶島中醫診所是位於新北市的中醫診所",
      "lat": 25.0042502,
      "lng": 121.4966738,
      "category": "醫療",
      "city": "新北市",
      "popular_product": ""
    },
    {
      "name": "高田食堂 長安店（日式料理）",
      "url": "",
      "place_id": "",
      "description": "電視牆會播華視新聞的網路直播給民眾觀看",
      "lat": 25.0824506,
      "lng": 121.4596835,
      "category": "美食",
      "city": "新北市",
      "popular_product": ""
    },
    {
      "name": "双福食品",
      "url": "",
      "place_id": "",
      "description": "老闆曾用麵包幫助二二八受難家庭",
      "lat": 25.0572531,
      "lng": 121.5185577,
      "category": "美食",
      "city": "台北市",
      "popular_product": ""
    },
    {
      "name": "老實媽媽-泰國料理 Thai food, Thailand Cuisine",
      "url": "",
      "place_id": "",
      "description": "老實媽媽-泰國料理 Thai food, Thailand Cuisine是位於台南市的泰國餐廳",
      "lat": 23.0000464,
      "lng": 120.2106657,
      "category": "美食",
      "city": "台南市",
      "popular_product": ""
    },
    {
      "name": "堂 圓仔湯 糯米炸 豆花",
      "url": "",
      "place_id": "",
      "description": "堂 圓仔湯 糯米炸 豆花是位於彰化縣的熟食店",
      "lat": 24.0793796,
      "lng": 120.5392796,
      "category": "美食",
      "city": "彰化縣",
      "popular_product": ""
    },
    {
      "name": "火月 咖啡.餐.酒館 F.M. Cafe & Bistro",
      "url": "",
      "place_id": "",
      "description": "火月 咖啡.餐.酒館 F.M. Cafe & Bistro是位於台北市的餐廳",
      "lat": 25.048611,
      "lng": 121.52236,
      "category": "美食",
      "city": "台北市",
      "popular_product": ""
    },
    {
      "name": "六甲牛肉湯",
      "url": "",
      "place_id": "",
      "description": "六甲牛肉湯是位於台南市的餐廳",
      "lat": 22.9527554,
      "lng": 120.2793209,
      "category": "美食",
      "city": "台南市",
      "popular_product": ""
    },
    {
      "name": "牛室炙燒牛排BEEFHOUSE 板橋府中店",
      "url": "",
      "place_id": "",
      "description": "牛室炙燒牛排BEEFHOUSE 板橋府中店是位於新北市的餐廳",
      "lat": 25.0071058,
      "lng": 121.4604046,
      "category": "美食",
      "city": "新北市",
      "popular_product": ""
    },
    {
      "name": "明興洗衣店",
      "url": "",
      "place_id": "",
      "description": "明興洗衣店是位於台中市的洗衣店",
      "lat": 24.147331,
      "lng": 120.692287,
      "category": "購物",
      "city": "台中市",
      "popular_product": ""
    },
    {
      "name": "小花椰健康/健身餐盒",
      "url": "",
      "place_id": "",
      "description": "小花椰健康/健身餐盒是位於嘉義市的健康食品餐廳",
      "lat": 23.4772815,
      "lng": 120.4474314,
      "category": "美食",
      "city": "嘉義市",
      "popular_product": ""
    },
    {
      "name": "樂好日",
      "url": "",
      "place_id": "",
      "description": "堅持以台語文書寫的店家",
      "lat": 22.9975726,
      "lng": 120.1988086,
      "category": "飲料店",
      "city": "台南市",
      "popular_product": ""
    },
    {
      "name": "B.B.Cafe 小黑熊咖啡(週一固定店休，其他店休請看Google Map, IG或來電詢問)",
      "url": "",
      "place_id": "",
      "description": "協助串連524文學館活動💚 青鳥貼紙台南索取點之一💚",
      "lat": 22.9945027,
      "lng": 120.2052364,
      "category": "咖啡廳",
      "city": "台南市",
      "popular_product": ""
    },
    {
      "name": "J.K Coffee（JK咖啡）休假請參閱IG",
      "url": "",
      "place_id": "",
      "description": "青鳥貼紙台南索取點之一",
      "lat": 23.0095499,
      "lng": 120.2126336,
      "category": "咖啡廳",
      "city": "台南市",
      "popular_product": ""
    },
    {
      "name": "軌咖啡（原：鬼咖啡）",
      "url": "",
      "place_id": "",
      "description": "軌咖啡（原：鬼咖啡）是位於台南市的咖啡店",
      "lat": 22.9946246,
      "lng": 120.2071419,
      "category": "咖啡廳",
      "city": "台南市",
      "popular_product": ""
    },
    {
      "name": "阿娥排骨麵",
      "url": "",
      "place_id": "",
      "description": "阿娥排骨麵是位於新北市的台灣餐廳",
      "lat": 25.1764911,
      "lng": 121.4566228,
      "category": "美食",
      "city": "新北市",
      "popular_product": ""
    },
    {
      "name": "媽咪美食館",
      "url": "",
      "place_id": "",
      "description": "媽咪美食館是位於台北市的中餐館",
      "lat": 25.0348687,
      "lng": 121.5068794,
      "category": "美食",
      "city": "台北市",
      "popular_product": ""
    },
    {
      "name": "萬客來水耕蔬菜微型智慧農場",
      "url": "",
      "place_id": "",
      "description": "萬客來水耕蔬菜微型智慧農場是位於台南市的餐廳",
      "lat": 22.9608003,
      "lng": 120.195661,
      "category": "美食",
      "city": "台南市",
      "popular_product": ""
    },
    {
      "name": "阿嬤的後花園",
      "url": "",
      "place_id": "",
      "description": "阿嬤的後花園是位於高雄市的農產品市場",
      "lat": 22.8695213,
      "lng": 120.5819276,
      "category": "購物",
      "city": "高雄市",
      "popular_product": ""
    },
    {
      "name": "Lee & Daughters",
      "url": "",
      "place_id": "",
      "description": "Lee & Daughters是位於高雄市的餐廳",
      "lat": 22.6132167,
      "lng": 120.3138284,
      "category": "美食",
      "city": "高雄市",
      "popular_product": ""
    },
    {
      "name": "尋早 Brunch",
      "url": "",
      "place_id": "",
      "description": "尋早 Brunch是位於台中市的早餐餐廳",
      "lat": 24.1256245,
      "lng": 120.6633642,
      "category": "美食",
      "city": "台中市",
      "popular_product": ""
    },
    {
      "name": "Okawari 㕩の食事処 （ 營業時間11:30-22:00）",
      "url": "",
      "place_id": "",
      "description": "Okawari 㕩の食事処 （ 營業時間11:30-22:00）是位於台南市的食堂與定食餐廳",
      "lat": 22.985912,
      "lng": 120.2012966,
      "category": "美食",
      "city": "台南市",
      "popular_product": ""
    },
    {
      "name": "蘇媽媽湯圓台中模範店",
      "url": "",
      "place_id": "",
      "description": "蘇媽媽湯圓台中模範店是位於台中市的熟食店",
      "lat": 24.147843,
      "lng": 120.6671468,
      "category": "美食",
      "city": "台中市",
      "popular_product": ""
    },
    {
      "name": "老鄭鴨肉麵",
      "url": "",
      "place_id": "",
      "description": "老鄭鴨肉麵是位於新竹市的麵店",
      "lat": 24.7930241,
      "lng": 120.9627236,
      "category": "美食",
      "city": "新竹市",
      "popular_product": ""
    },
    {
      "name": "豆奏會泥火山豆腐 休假日以臉書粉絲頁為主",
      "url": "",
      "place_id": "",
      "description": "豆奏會泥火山豆腐 休假日以臉書粉絲頁為主是位於花蓮縣的輕食餐廳",
      "lat": 23.2020372,
      "lng": 121.2747727,
      "category": "美食",
      "city": "花蓮縣",
      "popular_product": ""
    },
    {
      "name": "舊來發餅舖since1875",
      "url": "",
      "place_id": "",
      "description": "官方臉書有轉貼賴總統的圖。",
      "lat": 22.9997856,
      "lng": 120.2022076,
      "category": "美食",
      "city": "台南市",
      "popular_product": ""
    },
    {
      "name": "小高拉麵",
      "url": "",
      "place_id": "",
      "description": "小高拉麵是位於新北市的拉麵店",
      "lat": 24.999288,
      "lng": 121.5258292,
      "category": "美食",
      "city": "新北市",
      "popular_product": ""
    },
    {
      "name": "帝后大飯店",
      "url": "",
      "place_id": "",
      "description": "帝后大飯店是位於高雄市的飯店",
      "lat": 22.6265659,
      "lng": 120.28469,
      "category": "住宿",
      "city": "高雄市",
      "popular_product": ""
    },
    {
      "name": "台中溫泉｜谷關住宿｜谷關飯店｜惠來谷關溫泉會館",
      "url": "",
      "place_id": "",
      "description": "台中溫泉｜谷關住宿｜谷關飯店｜惠來谷關溫泉會館是位於台中市的溫泉",
      "lat": 24.2041649,
      "lng": 121.0107946,
      "category": "其他",
      "city": "台中市",
      "popular_product": ""
    },
    {
      "name": "fanfancy＋ with GiGO Garden City 台北",
      "url": "",
      "place_id": "",
      "description": "fanfancy＋ with GiGO Garden City 台北是位於台北市的雜貨店",
      "lat": 25.0424367,
      "lng": 121.5595066,
      "category": "購物",
      "city": "台北市",
      "popular_product": ""
    },
    {
      "name": "青春雞 CHING CHUN JEE 炸物 咖啡 甜點 喫茶 藝術品信義象山創始店",
      "url": "",
      "place_id": "",
      "description": "青春雞 CHING CHUN JEE 炸物 咖啡 甜點 喫茶 藝術品信義象山創始店是位於台北市的餐廳",
      "lat": 25.0259018,
      "lng": 121.5664627,
      "category": "美食",
      "city": "台北市",
      "popular_product": ""
    },
    {
      "name": "豆花森",
      "url": "",
      "place_id": "",
      "description": "豆花森是位於台北市的甜品店",
      "lat": 25.0292223,
      "lng": 121.5614746,
      "category": "購物",
      "city": "台北市",
      "popular_product": ""
    },
    {
      "name": "安平冰城（休假日請看臉書、IG)",
      "url": "",
      "place_id": "",
      "description": "有貼總統府春聯，店內播滅火器、拍謝少年的歌。",
      "lat": 22.999484,
      "lng": 120.1664444,
      "category": "飲料店",
      "city": "台南市",
      "popular_product": ""
    },
    {
      "name": "CC.PAIN Bakery",
      "url": "",
      "place_id": "",
      "description": "CC.PAIN Bakery是位於台南市的麵包西餅店",
      "lat": 23.0009816,
      "lng": 120.1814595,
      "category": "美食",
      "city": "台南市",
      "popular_product": ""
    },
    {
      "name": "腐城",
      "url": "",
      "place_id": "",
      "description": "店內有台灣青年跟青鳥行動相關的製品產物",
      "lat": 23.0087593,
      "lng": 120.2115823,
      "category": "飲料店",
      "city": "台南市",
      "popular_product": ""
    },
    {
      "name": "如常。所在",
      "url": "",
      "place_id": "",
      "description": "如常。所在是位於台中市的咖啡店",
      "lat": 24.1275685,
      "lng": 120.6668423,
      "category": "咖啡廳",
      "city": "台中市",
      "popular_product": ""
    },
    {
      "name": "橙心手作料理-礁溪美食 礁溪小吃 礁溪餐廳 礁溪必吃 礁溪合菜 礁溪推薦美食 礁溪restaurant 礁溪外燴",
      "url": "",
      "place_id": "",
      "description": "橙心手作料理-礁溪美食 礁溪小吃 礁溪餐廳 礁溪必吃 礁溪合菜 礁溪推薦美食 礁溪restaurant 礁溪外燴是位於宜蘭縣的餐廳",
      "lat": 24.8155532,
      "lng": 121.7948294,
      "category": "美食",
      "city": "宜蘭縣",
      "popular_product": ""
    },
    {
      "name": "何記蘿蔔糕芋頭糕",
      "url": "",
      "place_id": "",
      "description": "何記蘿蔔糕芋頭糕是位於台中市的熟食店",
      "lat": 24.1538744,
      "lng": 120.6619299,
      "category": "美食",
      "city": "台中市",
      "popular_product": ""
    },
    {
      "name": "默美早午餐",
      "url": "",
      "place_id": "",
      "description": "老闆在是廚房裏顧煎台的那個，青鳥行動時有去文學館參與，並發送了一點點自製的食物。 google map的營業時間有隨著臨時休假做更動，如果看見今日營業時間，就是真的休息！不要白跑一趟了！",
      "lat": 22.9851189,
      "lng": 120.2345779,
      "category": "美食",
      "city": "台南市",
      "popular_product": ""
    },
    {
      "name": "源興御香屋中正路二店",
      "url": "",
      "place_id": "",
      "description": "源興御香屋中正路二店是位於嘉義市的無酒精飲料店",
      "lat": 23.4788836,
      "lng": 120.4510326,
      "category": "飲料店",
      "city": "嘉義市",
      "popular_product": ""
    },
    {
      "name": "碧山岩 桶仔雞（加入官方賴預訂ID:",
      "url": "",
      "place_id": "",
      "description": "碧山岩 桶仔雞（加入官方賴預訂ID:是位於台北市的餐廳",
      "lat": 25.0805336,
      "lng": 121.5803681,
      "category": "美食",
      "city": "台北市",
      "popular_product": ""
    },
    {
      "name": "美迪亞漢堡店 ㊣ 六合二路│打烊前半小時無內用 │ 禁帶飲料、外食",
      "url": "",
      "place_id": "",
      "description": "美迪亞漢堡店 ㊣ 六合二路│打烊前半小時無內用 │ 禁帶飲料、外食是位於高雄市的漢堡餐廳",
      "lat": 22.6313392,
      "lng": 120.2964377,
      "category": "美食",
      "city": "高雄市",
      "popular_product": ""
    },
    {
      "name": "Mini toys",
      "url": "",
      "place_id": "",
      "description": "Mini toys是位於高雄市的玩具模型店",
      "lat": 22.6193024,
      "lng": 120.3078454,
      "category": "購物",
      "city": "高雄市",
      "popular_product": ""
    },
    {
      "name": "南傳鮮奶茶坊-文衡門市｜鮮奶茶 羊奶茶專賣｜初鹿鮮奶 阿秀鮮奶 清境農場羊奶 鮮乳坊 初鹿牧場商品｜ 黃金奶 焦糖奶 黑糖鮮奶 三糖奶｜不定時公休請見臉書動態",
      "url": "",
      "place_id": "",
      "description": "南傳鮮奶茶坊-文衡門市｜鮮奶茶 羊奶茶專賣｜初鹿鮮奶 阿秀鮮奶 清境農場羊奶 鮮乳坊 初鹿牧場商品｜ 黃金奶 焦糖奶 黑糖鮮奶 三糖奶｜不定時公休請見臉書動態是位於高雄市的食品及飲料顧問",
      "lat": 22.6407391,
      "lng": 120.3516922,
      "category": "飲料店",
      "city": "高雄市",
      "popular_product": ""
    },
    {
      "name": "大胖豬油拌麵",
      "url": "",
      "place_id": "",
      "description": "大胖豬油拌麵是位於高雄市的熟食店",
      "lat": 22.6258735,
      "lng": 120.2812146,
      "category": "美食",
      "city": "高雄市",
      "popular_product": ""
    },
    {
      "name": "怪獸古著",
      "url": "",
      "place_id": "",
      "description": "#台灣獨立",
      "lat": 22.6174121,
      "lng": 120.297172,
      "category": "購物",
      "city": "高雄市",
      "popular_product": ""
    },
    {
      "name": "Ricci Caffè / 不定休，休假日公布於IG/FB",
      "url": "",
      "place_id": "",
      "description": "逛奇美可以吃",
      "lat": 22.9237287,
      "lng": 120.2361637,
      "category": "咖啡廳",
      "city": "台南市",
      "popular_product": ""
    },
    {
      "name": "小栗子海鮮鍋燒專門店",
      "url": "",
      "place_id": "",
      "description": "小栗子海鮮鍋燒專門店是位於高雄市的麵店",
      "lat": 22.620031,
      "lng": 120.316923,
      "category": "美食",
      "city": "高雄市",
      "popular_product": ""
    },
    {
      "name": "老闆像狗【原 火土口力口】",
      "url": "",
      "place_id": "",
      "description": "老闆像狗【原 火土口力口】是位於高雄市的餐廳",
      "lat": 22.6100495,
      "lng": 120.314712,
      "category": "美食",
      "city": "高雄市",
      "popular_product": ""
    },
    {
      "name": "廚心-無國界牛排",
      "url": "",
      "place_id": "",
      "description": "廚心-無國界牛排是位於台南市的牛排",
      "lat": 22.9825449,
      "lng": 120.2056205,
      "category": "美食",
      "city": "台南市",
      "popular_product": ""
    },
    {
      "name": "高雄長腳麵大仁店",
      "url": "",
      "place_id": "",
      "description": "高雄長腳麵大仁店是位於高雄市的麵店",
      "lat": 22.6262597,
      "lng": 120.2831014,
      "category": "美食",
      "city": "高雄市",
      "popular_product": ""
    },
    {
      "name": "旗山 常美冰店 （臨時休假公告請看FB粉絲頁）",
      "url": "",
      "place_id": "",
      "description": "邁邁的愛店",
      "lat": 22.8931432,
      "lng": 120.4808496,
      "category": "飲料店",
      "city": "高雄市",
      "popular_product": ""
    },
    {
      "name": "什物 / Shiwu Studio 文具手帳選物店 台南文化幣",
      "url": "https://www.google.com/maps/place/%E4%BB%80%E7%89%A9+%2F+Shiwu+Studio+%E6%96%87%E5%85%B7%E6%89%8B%E5%B8%B3%E9%81%B8%E7%89%A9%E5%BA%97+%E5%8F%B0%E5%8D%97%E6%96%87%E5%8C%96%E5%B9%A3/data=!4m2!3m1!1s0x346e766490600adb:0x9b60c8fce2592b91",
      "place_id": "0x346e766490600adb:0x9b60c8fce2592b91",
      "description": "什物 / Shiwu Studio 文具手帳選物店 台南文化幣是位於台南市的文具店",
      "lat": 22.9845658,
      "lng": 120.1983301,
      "category": "購物",
      "city": "台南市",
      "popular_product": ""
    },
    {
      "name": "鴻大汽車",
      "url": "",
      "place_id": "",
      "description": "爲喜愛Smart的車友開的專賣店，歡迎來賞車聊天",
      "lat": 22.9710666,
      "lng": 120.1954899,
      "category": "其他",
      "city": "台南市",
      "popular_product": ""
    },
    {
      "name": "海癒小村咖啡店",
      "url": "",
      "place_id": "",
      "description": "連署站",
      "lat": 22.6629097,
      "lng": 121.0288549,
      "category": "咖啡廳",
      "city": "台東縣",
      "popular_product": ""
    },
    {
      "name": "一起 companio bakery（不定休請看FB/IG）",
      "url": "",
      "place_id": "",
      "description": "一起 companio bakery（不定休請看FB/IG）是位於台南市的麵包西餅店",
      "lat": 22.9803143,
      "lng": 120.2451599,
      "category": "美食",
      "city": "台南市",
      "popular_product": ""
    },
    {
      "name": "阿部玖肆地瓜球-鳳山中華店",
      "url": "",
      "place_id": "",
      "description": "阿部玖肆地瓜球-鳳山中華店是位於高雄市的小食/零食吧",
      "lat": 22.6275662,
      "lng": 120.3561924,
      "category": "美食",
      "city": "高雄市",
      "popular_product": ""
    },
    {
      "name": "打翻泡菜",
      "url": "",
      "place_id": "",
      "description": "打翻泡菜是位於台南市的餐廳",
      "lat": 22.9819909,
      "lng": 120.1948295,
      "category": "美食",
      "city": "台南市",
      "popular_product": ""
    },
    {
      "name": "植麵所-高雄特製細麵",
      "url": "",
      "place_id": "",
      "description": "植麵所-高雄特製細麵是位於高雄市的麵店",
      "lat": 22.6364912,
      "lng": 120.3575771,
      "category": "美食",
      "city": "高雄市",
      "popular_product": ""
    },
    {
      "name": "阿嬤家漁村料理",
      "url": "",
      "place_id": "",
      "description": "阿嬤家漁村料理是位於新北市的台灣餐廳",
      "lat": 25.2272342,
      "lng": 121.645575,
      "category": "美食",
      "city": "新北市",
      "popular_product": ""
    },
    {
      "name": "財閥家的公子貓｜擼貓咖啡廳｜貓咪販售｜預約制需先付定金",
      "url": "",
      "place_id": "",
      "description": "財閥家的公子貓｜擼貓咖啡廳｜貓咪販售｜預約制需先付定金是位於台南市的咖啡店",
      "lat": 22.9337045,
      "lng": 120.1823447,
      "category": "咖啡廳",
      "city": "台南市",
      "popular_product": ""
    },
    {
      "name": "Butcher by LanPengYou",
      "url": "",
      "place_id": "",
      "description": "Butcher by LanPengYou是位於台北市的美式餐廳",
      "lat": 25.029852,
      "lng": 121.5582146,
      "category": "美食",
      "city": "台北市",
      "popular_product": ""
    },
    {
      "name": "張媽媽飯糰 金城店",
      "url": "",
      "place_id": "",
      "description": "張媽媽飯糰 金城店是位於金門縣的早餐餐廳",
      "lat": 24.4326999,
      "lng": 118.3158129,
      "category": "美食",
      "city": "金門縣",
      "popular_product": ""
    },
    {
      "name": "西門麵店",
      "url": "",
      "place_id": "",
      "description": "西門麵店是位於台北市的麵店",
      "lat": 25.041694,
      "lng": 121.505581,
      "category": "美食",
      "city": "台北市",
      "popular_product": ""
    },
    {
      "name": "Bloom bistro 綻.食/台北義大利麵/台北美食/台北必吃/附近美食/restaurants/家庭聚餐",
      "url": "",
      "place_id": "",
      "description": "Bloom bistro 綻.食/台北義大利麵/台北美食/台北必吃/附近美食/restaurants/家庭聚餐是位於台北市的早午餐餐廳",
      "lat": 25.0267233,
      "lng": 121.5515548,
      "category": "美食",
      "city": "台北市",
      "popular_product": ""
    },
    {
      "name": "啾咖哩",
      "url": "",
      "place_id": "",
      "description": "啾咖哩是位於台南市的日式咖哩餐廳",
      "lat": 23.1610388,
      "lng": 120.1773824,
      "category": "美食",
      "city": "台南市",
      "popular_product": ""
    },
    {
      "name": "冒險者公會 The A.G's Bar",
      "url": "",
      "place_id": "",
      "description": "冒險者公會 The A.G's Bar是位於台北市的酒吧",
      "lat": 25.0395086,
      "lng": 121.5616868,
      "category": "酒吧",
      "city": "台北市",
      "popular_product": ""
    },
    {
      "name": "小冬家",
      "url": "",
      "place_id": "",
      "description": "店內貼時代革命海報💪🏻",
      "lat": 22.6240822,
      "lng": 120.2948036,
      "category": "美食",
      "city": "高雄市",
      "popular_product": ""
    },
    {
      "name": "韓Burger早午餐（週一固定公休）",
      "url": "",
      "place_id": "",
      "description": "韓Burger早午餐（週一固定公休）是位於台中市的早午餐餐廳",
      "lat": 24.1390603,
      "lng": 120.7075983,
      "category": "美食",
      "city": "台中市",
      "popular_product": ""
    },
    {
      "name": "周爌肉飯炒麵",
      "url": "",
      "place_id": "",
      "description": "周爌肉飯炒麵是位於台中市的熟食店",
      "lat": 24.2307999,
      "lng": 120.6583542,
      "category": "美食",
      "city": "台中市",
      "popular_product": ""
    },
    {
      "name": "台南一味品碗粿魚羹",
      "url": "",
      "place_id": "",
      "description": "青年營的午餐",
      "lat": 22.9975513,
      "lng": 120.1988988,
      "category": "美食",
      "city": "台南市",
      "popular_product": ""
    },
    {
      "name": "越香美食",
      "url": "",
      "place_id": "",
      "description": "越香美食是位於台中市的越南餐廳",
      "lat": 24.1242991,
      "lng": 120.6626016,
      "category": "美食",
      "city": "台中市",
      "popular_product": ""
    },
    {
      "name": "客美多咖啡 忠孝光復店",
      "url": "",
      "place_id": "",
      "description": "客美多咖啡 忠孝光復店是位於台北市的咖啡店",
      "lat": 25.0398581,
      "lng": 121.5574696,
      "category": "咖啡廳",
      "city": "台北市",
      "popular_product": ""
    },
    {
      "name": "小丞家麵包製研所",
      "url": "",
      "place_id": "",
      "description": "青年營贊助餐盒",
      "lat": 23.03759,
      "lng": 120.2647399,
      "category": "美食",
      "city": "台南市",
      "popular_product": ""
    },
    {
      "name": "萬萬One One(12點營業/室內較小同組最多接待三位,無法拆/併桌,無訂位,公休請見fb.ig)",
      "url": "",
      "place_id": "",
      "description": "如果想要體驗台南的慢活與人情味的話，這間店的氛圍會讓人一秒回台北",
      "lat": 22.9919763,
      "lng": 120.1995163,
      "category": "咖啡廳",
      "city": "台南市",
      "popular_product": ""
    },
    {
      "name": "濤人絹印手做",
      "url": "",
      "place_id": "",
      "description": "濤人絹印手做是位於台南市的手工藝品",
      "lat": 22.9862922,
      "lng": 120.209641,
      "category": "藝文/工作室",
      "city": "台南市",
      "popular_product": ""
    },
    {
      "name": "莊瑞榮眼科診所",
      "url": "",
      "place_id": "",
      "description": "診所內有貼反國會濫權的標語",
      "lat": 22.991635,
      "lng": 120.200819,
      "category": "醫療",
      "city": "台南市",
      "popular_product": ""
    },
    {
      "name": "新味軒菸酒",
      "url": "",
      "place_id": "",
      "description": "新味軒菸酒是位於台南市的酒品專賣店",
      "lat": 22.992138,
      "lng": 120.207176,
      "category": "酒吧",
      "city": "台南市",
      "popular_product": ""
    },
    {
      "name": "森木廚房 日式咖哩＆米食餐盒",
      "url": null,
      "place_id": "",
      "description": "得知餐點是台南青鳥活動用而給予優惠",
      "lat": null,
      "lng": null,
      "category": "美食",
      "city": "台南市",
      "popular_product": ""
    },
    {
      "name": "Wanyi玩藝花坊（有錢花、乾燥花、永生花、畢業花束、氣球佈置、開幕盆花)",
      "url": "",
      "place_id": "",
      "description": "Wanyi玩藝花坊（有錢花、乾燥花、永生花、畢業花束、氣球佈置、開幕盆花)是位於台南市的乾花店",
      "lat": 22.9912452,
      "lng": 120.2275058,
      "category": "購物",
      "city": "台南市",
      "popular_product": ""
    },
    {
      "name": "夥伴生活台南南紡店：台灣製造除臭襪、內著",
      "url": "",
      "place_id": "",
      "description": "夥伴生活台南南紡店：台灣製造除臭襪、內著是位於台南市的運動用品店",
      "lat": 22.9901633,
      "lng": 120.2330062,
      "category": "購物",
      "city": "台南市",
      "popular_product": ""
    },
    {
      "name": "白兔美術社 コーヒー 喫茶【白兔 Coffee KISSA】",
      "url": "",
      "place_id": "",
      "description": "白兔美術社 コーヒー 喫茶【白兔 Coffee KISSA】是位於台南市的咖啡店",
      "lat": 22.9914269,
      "lng": 120.2175553,
      "category": "咖啡廳",
      "city": "台南市",
      "popular_product": ""
    },
    {
      "name": "MR GOOD 古德先生澳式咖啡 忠義店",
      "url": "",
      "place_id": "",
      "description": "MR GOOD 古德先生澳式咖啡 忠義店是位於台南市的咖啡店",
      "lat": 22.9893082,
      "lng": 120.2022736,
      "category": "咖啡廳",
      "city": "台南市",
      "popular_product": ""
    },
    {
      "name": "東二精釀啤酒吧 Tongoh Craft Beer Bar",
      "url": "",
      "place_id": "",
      "description": "東二精釀啤酒吧 Tongoh Craft Beer Bar是位於台南市的酒吧",
      "lat": 22.9900891,
      "lng": 120.1963034,
      "category": "酒吧",
      "city": "台南市",
      "popular_product": ""
    },
    {
      "name": "植蕨 西門店",
      "url": "",
      "place_id": "",
      "description": "https://www.threads.com/@clairehandwriting/post/DLZClHXSe9B?xmt=AQF0Wq48w_Y73Fgp8qEZY03feyhcaaUVEZ0mQCYh4L3Brg",
      "lat": 22.985731,
      "lng": 120.1977331,
      "category": "飲料店",
      "city": "台南市",
      "popular_product": ""
    },
    {
      "name": "Zuzu千層蛋糕 可麗露 司康 （沿著轉角走過來==",
      "url": "",
      "place_id": "",
      "description": "Zuzu千層蛋糕 可麗露 司康 （沿著轉角走過來==是位於台南市的甜品店",
      "lat": 22.9868671,
      "lng": 120.2427344,
      "category": "購物",
      "city": "台南市",
      "popular_product": ""
    },
    {
      "name": "夏之林餐飲",
      "url": "",
      "place_id": "",
      "description": "夏之林餐飲是位於台南市的熟食店",
      "lat": 22.9885073,
      "lng": 120.1961877,
      "category": "美食",
      "city": "台南市",
      "popular_product": ""
    },
    {
      "name": "台南市牛家莊牛肉湯",
      "url": "",
      "place_id": "",
      "description": "台南市牛家莊牛肉湯是位於台南市的熟食店",
      "lat": 22.9895757,
      "lng": 120.1945126,
      "category": "美食",
      "city": "台南市",
      "popular_product": ""
    },
    {
      "name": "莉莉水果店",
      "url": "",
      "place_id": "",
      "description": "電影「尋找湯德章」的推動者之一",
      "lat": 22.9890496,
      "lng": 120.204125,
      "category": "飲料店",
      "city": "台南市",
      "popular_product": ""
    },
    {
      "name": "國棟麵店",
      "url": "",
      "place_id": "",
      "description": "國棟麵店是位於台南市的麵店",
      "lat": 22.9675685,
      "lng": 120.2151927,
      "category": "美食",
      "city": "台南市",
      "popular_product": ""
    },
    {
      "name": "月波",
      "url": "",
      "place_id": "",
      "description": "月波是位於台南市的咖啡店",
      "lat": 22.9839586,
      "lng": 120.2168748,
      "category": "咖啡廳",
      "city": "台南市",
      "popular_product": ""
    },
    {
      "name": "明卿蝦仁飯",
      "url": "",
      "place_id": "",
      "description": "王定宇委員也推薦，1推蝦仁飯2推炒意麵烏龍麵",
      "lat": 22.9647346,
      "lng": 120.1921254,
      "category": "美食",
      "city": "台南市",
      "popular_product": ""
    },
    {
      "name": "德高水果酵素臭豆腐",
      "url": "",
      "place_id": "",
      "description": "德高水果酵素臭豆腐是位於台南市的小食/零食吧",
      "lat": 22.962005,
      "lng": 120.2362006,
      "category": "美食",
      "city": "台南市",
      "popular_product": ""
    },
    {
      "name": "豆弄 とろ",
      "url": "",
      "place_id": "",
      "description": "店內有「望你順遂美麗的島 NO DISCUSSION NO DEMOCRACY」貼紙供免費索取",
      "lat": 22.9825966,
      "lng": 120.2085946,
      "category": "美食",
      "city": "台南市",
      "popular_product": ""
    },
    {
      "name": "綠茵小筑",
      "url": "",
      "place_id": "",
      "description": "綠茵小筑是位於台東縣的住宿",
      "lat": 22.7834264,
      "lng": 121.1234963,
      "category": "住宿",
      "city": "台東縣",
      "popular_product": ""
    },
    {
      "name": "台南七海魚肚魚皮專賣店",
      "url": "",
      "place_id": "",
      "description": "台南七海魚肚魚皮專賣店是位於台南市的魚料理餐廳",
      "lat": 22.9776192,
      "lng": 120.2344436,
      "category": "美食",
      "city": "台南市",
      "popular_product": ""
    },
    {
      "name": "旗山秀明豬心冬粉",
      "url": "",
      "place_id": "",
      "description": "旗山秀明豬心冬粉是位於高雄市的台灣餐廳",
      "lat": 22.8854013,
      "lng": 120.4814498,
      "category": "美食",
      "city": "高雄市",
      "popular_product": ""
    },
    {
      "name": "驊毅金屬股份有限公司(鐵材行、鋼鐵加工廠)",
      "url": "",
      "place_id": "",
      "description": "驊毅金屬股份有限公司(鐵材行、鋼鐵加工廠)是位於台南市的鋼鐵加工廠",
      "lat": 22.974007,
      "lng": 120.247259,
      "category": "其他",
      "city": "台南市",
      "popular_product": ""
    },
    {
      "name": "咕嚕家庭料理館",
      "url": "",
      "place_id": "",
      "description": "咕嚕家庭料理館是位於台南市的家庭餐廳",
      "lat": 22.982097,
      "lng": 120.2056169,
      "category": "美食",
      "city": "台南市",
      "popular_product": ""
    },
    {
      "name": "哈努曼泰茶",
      "url": "",
      "place_id": "",
      "description": "哈努曼泰茶是位於台南市的咖啡店",
      "lat": 22.9774945,
      "lng": 120.2284239,
      "category": "咖啡廳",
      "city": "台南市",
      "popular_product": ""
    },
    {
      "name": "大掌粿。煎肉粿創始總店",
      "url": "",
      "place_id": "",
      "description": "闆有在脆表態！（oboobo1021） 🎉900芯被關進土城收容所的話 就發50份肉粿+50份麵糊蛋餅 一起普天同慶XD",
      "lat": 22.7860054,
      "lng": 120.2856425,
      "category": "美食",
      "city": "高雄市",
      "popular_product": ""
    },
    {
      "name": "尋早 Brunch",
      "url": "",
      "place_id": "",
      "description": "尋早 Brunch是位於台中市的早餐餐廳",
      "lat": 24.1256245,
      "lng": 120.6633642,
      "category": "美食",
      "city": "台中市",
      "popular_product": ""
    },
    {
      "name": "KAKES Pâtisserie",
      "url": "",
      "place_id": "",
      "description": "KAKES Pâtisserie是位於台南市的甜品店",
      "lat": 22.9744752,
      "lng": 120.2175674,
      "category": "購物",
      "city": "台南市",
      "popular_product": ""
    },
    {
      "name": "阿娥傳統麵店",
      "url": "",
      "place_id": "",
      "description": "阿娥傳統麵店是位於台中市的麵店",
      "lat": 24.1762358,
      "lng": 120.6611175,
      "category": "美食",
      "city": "台中市",
      "popular_product": ""
    },
    {
      "name": "小仙人掌餐館Little cactus",
      "url": "",
      "place_id": "",
      "description": "小仙人掌餐館Little cactus是位於台東縣的小餐館 (Bistro)",
      "lat": 22.872613,
      "lng": 121.2253888,
      "category": "美食",
      "city": "台東縣",
      "popular_product": ""
    },
    {
      "name": "Hand ART - Hair Boutique",
      "url": "",
      "place_id": "",
      "description": "Hand ART - Hair Boutique是位於台南市的髮廊",
      "lat": 22.9836611,
      "lng": 120.1955,
      "category": "美容",
      "city": "台南市",
      "popular_product": ""
    },
    {
      "name": "iff coffee 若且唯若",
      "url": "",
      "place_id": "",
      "description": "有「望你順遂」旗幟。店喵剛離開，老闆平撫心情中，暫停營業。",
      "lat": 22.67458,
      "lng": 120.3043165,
      "category": "咖啡廳",
      "city": "高雄市",
      "popular_product": ""
    },
    {
      "name": "楓の豆花店",
      "url": "",
      "place_id": "",
      "description": "楓の豆花店是位於屏東縣的甜品店",
      "lat": 22.6727238,
      "lng": 120.4965272,
      "category": "購物",
      "city": "屏東縣",
      "popular_product": ""
    },
    {
      "name": "貳工箱造設計有限公司 | 貨櫃宅設計規劃 | 嗨營業中設計施工",
      "url": "",
      "place_id": "",
      "description": "貳工箱造設計有限公司 | 貨櫃宅設計規劃 | 嗨營業中設計施工是位於屏東縣的設計工程師",
      "lat": 22.6893715,
      "lng": 120.5031916,
      "category": "其他",
      "city": "屏東縣",
      "popular_product": ""
    },
    {
      "name": "Pure樸嶼 Brunch coffee ｜咖啡｜甜點 ｜午餐｜綠島美食｜烤飯糰｜巴斯克蛋糕｜秘境咖啡店｜玻璃屋｜綠島打卡景點｜下午茶｜",
      "url": "",
      "place_id": "",
      "description": "Pure樸嶼 Brunch coffee ｜咖啡｜甜點 ｜午餐｜綠島美食｜烤飯糰｜巴斯克蛋糕｜秘境咖啡店｜玻璃屋｜綠島打卡景點｜下午茶｜是位於台東縣的早午餐餐廳",
      "lat": 22.6470828,
      "lng": 121.474834,
      "category": "美食",
      "city": "台東縣",
      "popular_product": ""
    },
    {
      "name": "秋林牛乳大王",
      "url": "",
      "place_id": "",
      "description": "秋林牛乳大王是位於屏東縣的果汁店",
      "lat": 22.6719409,
      "lng": 120.4829974,
      "category": "飲料店",
      "city": "屏東縣",
      "popular_product": ""
    },
    {
      "name": "慢食SlowFood高雄健康餐- |鼓山健康餐盒|健身餐盒|會議便當|商業午餐|外帶餐盒|健康餐廳|提供內用|",
      "url": "",
      "place_id": "",
      "description": "慢食SlowFood高雄健康餐- |鼓山健康餐盒|健身餐盒|會議便當|商業午餐|外帶餐盒|健康餐廳|提供內用|是位於高雄市的健康食品餐廳",
      "lat": 22.667034,
      "lng": 120.2943186,
      "category": "美食",
      "city": "高雄市",
      "popular_product": ""
    },
    {
      "name": "九記文忠食糖水",
      "url": "",
      "place_id": "",
      "description": "九記文忠食糖水是位於高雄市的甜品店",
      "lat": 22.6650483,
      "lng": 120.2988641,
      "category": "購物",
      "city": "高雄市",
      "popular_product": ""
    },
    {
      "name": "九記河堤食糖水",
      "url": "",
      "place_id": "",
      "description": "香港老闆撐台灣 · https://www.instagram.com/kau.kee.sik.tong.shui/ · · https://www.threads.net/@kau.kee.sik.tong.shui?xmt=AQGzOFfcgveaNh18X9smA1hjZh-hv5y99lW0KweuHWF1NA4 · · https://www.facebook.com/Kau.Kee.Sik.Tong.Shui/?locale=zh_TW",
      "lat": 22.6621351,
      "lng": 120.3130674,
      "category": "購物",
      "city": "高雄市",
      "popular_product": ""
    },
    {
      "name": "薄荷美學髮型南高雄旗艦店｜免預約100元瀏海剪專門・男生韓式髮型設計・女生髮根燙專門",
      "url": "",
      "place_id": "",
      "description": "薄荷美學髮型南高雄旗艦店｜免預約100元瀏海剪專門・男生韓式髮型設計・女生髮根燙專門是位於高雄市的髮廊",
      "lat": 22.6235427,
      "lng": 120.3048305,
      "category": "美容",
      "city": "高雄市",
      "popular_product": ""
    },
    {
      "name": "海福排骨飯",
      "url": "",
      "place_id": "",
      "description": "海福排骨飯是位於高雄市的熟食店",
      "lat": 22.6167355,
      "lng": 120.3092515,
      "category": "美食",
      "city": "高雄市",
      "popular_product": ""
    },
    {
      "name": "河映宿沐 RiverTrees Hotel",
      "url": "",
      "place_id": "",
      "description": "河映宿沐 RiverTrees Hotel是位於高雄市的旅館",
      "lat": 22.621042,
      "lng": 120.28916,
      "category": "住宿",
      "city": "高雄市",
      "popular_product": ""
    },
    {
      "name": "Ss玩美女人 beauty studio",
      "url": "",
      "place_id": "",
      "description": "Ss玩美女人 beauty studio是位於高雄市的美容院",
      "lat": 22.633509,
      "lng": 120.29551,
      "category": "美容",
      "city": "高雄市",
      "popular_product": ""
    },
    {
      "name": "銓辰通訊｜Apple 專業配件選物店｜手機維修店",
      "url": "",
      "place_id": "",
      "description": "銓辰通訊｜Apple 專業配件選物店｜手機維修店是位於高雄市的手機配件專賣店",
      "lat": 22.6326665,
      "lng": 120.3052467,
      "category": "購物",
      "city": "高雄市",
      "popular_product": ""
    },
    {
      "name": "海珈琲 海とコーヒー",
      "url": "",
      "place_id": "",
      "description": "海珈琲 海とコーヒー是位於高雄市的咖啡店",
      "lat": 22.6209346,
      "lng": 120.2749521,
      "category": "咖啡廳",
      "city": "高雄市",
      "popular_product": ""
    },
    {
      "name": "小雨日和髮廊 kosame-biyori 剪髮／護髮／染髮／燙髮／設計師一對一服務",
      "url": "",
      "place_id": "",
      "description": "小雨日和髮廊 kosame-biyori 剪髮／護髮／染髮／燙髮／設計師一對一服務是位於高雄市的髮廊",
      "lat": 22.6246195,
      "lng": 120.3255743,
      "category": "美容",
      "city": "高雄市",
      "popular_product": ""
    },
    {
      "name": "福福堂中醫診所 科學中藥/客製水藥/古法針灸/徒手整復/拔罐刮痧/淋巴導引/體重管理",
      "url": "",
      "place_id": "",
      "description": "https://www.instagram.com/fu.fu.tang/ · · https://www.facebook.com/fufutangtcm/?locale=zh_TW",
      "lat": 22.6372882,
      "lng": 120.2992825,
      "category": "醫療",
      "city": "高雄市",
      "popular_product": ""
    },
    {
      "name": "波波加洛 PAPPAGALLO (last order:12:30與19:00)",
      "url": "",
      "place_id": "",
      "description": "波波加洛 PAPPAGALLO (last order:12:30與19:00)是位於高雄市的餐廳",
      "lat": 22.621821,
      "lng": 120.286184,
      "category": "美食",
      "city": "高雄市",
      "popular_product": ""
    },
    {
      "name": "家常飯朴老師 - 高雄站前4號店 집밥박선생",
      "url": "",
      "place_id": "",
      "description": "家常飯朴老師 - 高雄站前4號店 집밥박선생是位於高雄市的韓國菜",
      "lat": 22.6376372,
      "lng": 120.2997768,
      "category": "美食",
      "city": "高雄市",
      "popular_product": ""
    },
    {
      "name": "九記食糖水",
      "url": "",
      "place_id": "",
      "description": "香港老闆撐台灣 · https://www.instagram.com/kau.kee.sik.tong.shui/ · · https://www.threads.net/@kau.kee.sik.tong.shui?xmt=AQGzOFfcgveaNh18X9smA1hjZh-hv5y99lW0KweuHWF1NA4 · · https://www.facebook.com/Kau.Kee.Sik.Tong.Shui/?locale=zh_TW",
      "lat": 22.6259675,
      "lng": 120.316198,
      "category": "購物",
      "city": "高雄市",
      "popular_product": ""
    },
    {
      "name": "滿湯麵食(日、一固定公休，最新資訊請參考臉書）",
      "url": "",
      "place_id": "",
      "description": "滿湯麵食(日、一固定公休，最新資訊請參考臉書）是位於高雄市的中式麵食",
      "lat": 22.6294389,
      "lng": 120.2983202,
      "category": "美食",
      "city": "高雄市",
      "popular_product": ""
    },
    {
      "name": "九記 鹽埕食糖水",
      "url": "",
      "place_id": "",
      "description": "香港老闆撐台灣 · https://www.instagram.com/kau.kee.sik.tong.shui/ · · https://www.threads.net/@kau.kee.sik.tong.shui?xmt=AQGzOFfcgveaNh18X9smA1hjZh-hv5y99lW0KweuHWF1NA4 · · https://www.facebook.com/Kau.Kee.Sik.Tong.Shui/?locale=zh_TW",
      "lat": 22.6252576,
      "lng": 120.283041,
      "category": "購物",
      "city": "高雄市",
      "popular_product": ""
    },
    {
      "name": "Smoko Salad Bar",
      "url": "",
      "place_id": "",
      "description": "門口標語說明一切",
      "lat": 22.611531,
      "lng": 120.3074993,
      "category": "其他",
      "city": "高雄市",
      "popular_product": ""
    },
    {
      "name": "禾火食堂",
      "url": "",
      "place_id": "",
      "description": "店門口張貼「青鳥、望你順遂台灣」海報，還有說台語字卡👍",
      "lat": 24.0569006,
      "lng": 120.4378172,
      "category": "美食",
      "city": "彰化縣",
      "popular_product": ""
    },
    {
      "name": "東皋歇暝-鹿港民宿 Tang-ko Hioh-mî Lukang Guesthouse",
      "url": "",
      "place_id": "",
      "description": "樓下的餐廳門口張貼青鳥相關海報，也有貼推廣說台語的字卡。",
      "lat": 24.0569006,
      "lng": 120.4378172,
      "category": "住宿",
      "city": "彰化縣",
      "popular_product": ""
    },
    {
      "name": "鳥咖啡（無訂位）",
      "url": "",
      "place_id": "",
      "description": "店內有「望你順遂」旗子，店門口小招牌寫著請大家關心財劃法。",
      "lat": 25.0333526,
      "lng": 121.5586728,
      "category": "咖啡廳",
      "city": "台北市",
      "popular_product": ""
    },
    {
      "name": "橋頭豬血湯",
      "url": "",
      "place_id": "",
      "description": "橋頭豬血湯是位於台南市的台灣菜",
      "lat": 23.0504548,
      "lng": 120.2404314,
      "category": "美食",
      "city": "台南市",
      "popular_product": ""
    },
    {
      "name": "給冷鴿手作甜點",
      "url": "",
      "place_id": "",
      "description": "唉",
      "lat": 25.0519491,
      "lng": 121.6153757,
      "category": "購物",
      "city": "台北市",
      "popular_product": ""
    },
    {
      "name": "初米黃燜雞",
      "url": "",
      "place_id": "",
      "description": "初米黃燜雞是位於高雄市的餐廳",
      "lat": 22.615381,
      "lng": 120.30925,
      "category": "美食",
      "city": "高雄市",
      "popular_product": ""
    },
    {
      "name": "Woolloomooloo Yakka",
      "url": "",
      "place_id": "",
      "description": "Woolloomooloo Yakka是位於台北市的雜貨店",
      "lat": 25.033335,
      "lng": 121.5582779,
      "category": "購物",
      "city": "台北市",
      "popular_product": ""
    },
    {
      "name": "Woolloomooloo Simple Joy",
      "url": "",
      "place_id": "",
      "description": "牆上掛有台灣獨曆",
      "lat": 25.048786,
      "lng": 121.5327434,
      "category": "咖啡廳",
      "city": "台北市",
      "popular_product": ""
    },
    {
      "name": "Woolloomooloo Fujin",
      "url": "",
      "place_id": "",
      "description": "Woolloomooloo Fujin是位於台北市的咖啡店",
      "lat": 25.0596679,
      "lng": 121.552209,
      "category": "咖啡廳",
      "city": "台北市",
      "popular_product": ""
    },
    {
      "name": "米干太太",
      "url": "",
      "place_id": "",
      "description": "米干太太是位於台南市的亞洲料理",
      "lat": 22.9825305,
      "lng": 120.2057727,
      "category": "美食",
      "city": "台南市",
      "popular_product": ""
    },
    {
      "name": "小麵殿-台南五妃殿",
      "url": "",
      "place_id": "",
      "description": "小麵殿-台南五妃殿是位於台南市的中式麵食",
      "lat": 22.9827024,
      "lng": 120.204921,
      "category": "美食",
      "city": "台南市",
      "popular_product": ""
    },
    {
      "name": "小北家灶咖ZAOKA",
      "url": "",
      "place_id": "",
      "description": "小北家灶咖ZAOKA是位於台南市的早午餐餐廳",
      "lat": 22.9990604,
      "lng": 120.1992421,
      "category": "美食",
      "city": "台南市",
      "popular_product": ""
    },
    {
      "name": "日翼 / 清粥小菜&Bar /台菜/家常菜/Taiwanese food/",
      "url": "",
      "place_id": "",
      "description": "日翼 / 清粥小菜&Bar /台菜/家常菜/Taiwanese food/是位於台北市的酒吧",
      "lat": 25.0446762,
      "lng": 121.5531815,
      "category": "酒吧",
      "city": "台北市",
      "popular_product": ""
    },
    {
      "name": "摩斯漢堡 政大指南店",
      "url": "",
      "place_id": "",
      "description": "摩斯漢堡 政大指南店是位於台北市的餐廳",
      "lat": 24.9879162,
      "lng": 121.5749307,
      "category": "美食",
      "city": "台北市",
      "popular_product": ""
    },
    {
      "name": "摩斯漢堡 京站店",
      "url": "",
      "place_id": "",
      "description": "摩斯漢堡 京站店是位於台北市的漢堡餐廳",
      "lat": 24.1301984,
      "lng": 120.6615453,
      "category": "美食",
      "city": "台北市",
      "popular_product": ""
    },
    {
      "name": "摩斯漢堡 華陰京站店",
      "url": "",
      "place_id": "",
      "description": "摩斯漢堡 華陰京站店是位於台北市的漢堡餐廳",
      "lat": 25.0498541,
      "lng": 121.5173354,
      "category": "美食",
      "city": "台北市",
      "popular_product": ""
    },
    {
      "name": "摩斯漢堡 雙連店",
      "url": "",
      "place_id": "",
      "description": "摩斯漢堡 雙連店是位於台北市的漢堡餐廳",
      "lat": 25.0576647,
      "lng": 121.519759,
      "category": "美食",
      "city": "台北市",
      "popular_product": ""
    },
    {
      "name": "摩斯漢堡 台北車站店(北一門旁)",
      "url": "",
      "place_id": "",
      "description": "摩斯漢堡 台北車站店(北一門旁)是位於台北市的餐廳",
      "lat": 25.0481211,
      "lng": 121.5173787,
      "category": "美食",
      "city": "台北市",
      "popular_product": ""
    },
    {
      "name": "摩斯漢堡 台北站前店",
      "url": "",
      "place_id": "",
      "description": "摩斯漢堡 台北站前店是位於台北市的快餐店",
      "lat": 25.0456369,
      "lng": 121.5159234,
      "category": "美食",
      "city": "台北市",
      "popular_product": ""
    },
    {
      "name": "摩斯漢堡 和平建國店",
      "url": "",
      "place_id": "",
      "description": "摩斯漢堡 和平建國店是位於台北市的漢堡餐廳",
      "lat": 25.0258141,
      "lng": 121.5382715,
      "category": "美食",
      "city": "台北市",
      "popular_product": ""
    },